ID	Name	Lat	Lon
AGE00135039	ORAN-HOPITAL MILITAIRE	35.7297	0.65
AGE00147705	ALGIERS-VILLE/UNIVERSITE	36.78	3.07
AGE00147707	ALGIERS-CAP CAXINE	36.8	3.04
AGE00147708	TIZI OUZOU	36.72	4.05
AGE00147709	FORT NATIONAL	36.63	4.2
AGE00147711	CONSTANTINE	36.3697	6.62
AGE00147712	ORLEANSVILLE (CHLEF)	36.17	1.34
AGE00147713	SETIF	36.18	5.4
AGE00147715	TEBESSA	35.42	8.1197
AGE00147716	NEMOURS (GHAZAOUET)	35.1	-1.85
AGE00147717	SIDI-BEL-ABBES	35.2	0.63
AGE00147718	BISKRA	34.85	5.72
AGE00147719	LAGHOUAT	33.7997	2.89
AGE00147720	GERYVILLE (EL-BAYADH)	33.68	1
AJ000037735	GANCA	40.7167	46.4167
AJ000037850	BAKU	40.4	49.8
AM000037789	YEREVAN	40.2	44.5
ASN00001005	WYNDHAM PORT	-15.4644	128.1
ASN00003002	BROOME POST OFFICE	-17.95	122.25
ASN00003007	DERBY POST OFFICE	-17.3044	123.6292
ASN00003010	KIMBERLEY DOWNS	-17.3897	124.3578
ASN00003050	LIVERINGA LOWER	-17.95	124.1667
ASN00004007	BOODARIE	-20.4	118.4667
ASN00004012	DE GREY	-20.1764	119.1906
ASN00004023	MULYIE	-20.4619	119.5189
ASN00004035	ROEBOURNE	-20.7767	117.1456
ASN00004053	CONDON	-20	119.4
ASN00004054	COSSACK	-20.6783	117.1892
ASN00004071	PYRAMID 1	-21.05	117.45
ASN00005008	MARDIE	-21.1906	115.9797
ASN00005014	MOUNT FLORANCE	-21.7869	117.8647
ASN00005016	ONSLOW	-21.6364	115.1117
ASN00005044	FORTESCUE	-21.1	116.1
ASN00005046	HARDY JUNCTION	-22.7	116.1
ASN00006000	BIDGEMIA	-25.0417	115.3092
ASN00006025	HAMELIN POOL	-26.4008	114.1667
ASN00006027	JIMBA JIMBA	-25.0442	115.1331
ASN00006052	WILLIAMBURY	-23.8608	115.1475
ASN00006062	CARNARVON POST OFFICE	-24.9	113.65
ASN00006074	MILLIE MILLIE	-24.8667	114.5833
ASN00007003	BERINGARRA	-26.0417	116.9528
ASN00007020	ANNEAN	-26.8764	118.1731
ASN00007027	GABYON	-28.2494	116.34
ASN00007052	MOORARIE	-25.9214	117.6
ASN00007064	MURGOO	-27.3636	116.4261
ASN00007137	NOOKAWARRA	-26.3028	116.8789
ASN00008025	CARNAMAH	-29.6889	115.8869
ASN00008044	DONGARA	-29.2528	114.9306
ASN00008050	GERALDTON TOWN	-28.7769	114.605
ASN00008058	GREENOUGH	-29	114.8
ASN00008100	NORTHAMPTON	-28.3456	114.6367
ASN00008149	PELSART ISLAND	-28.9833	113.95
ASN00008151	WALEBING	-30.665	116.1386
ASN00008183	NEW MARACARRA	-28.7167	114.8167
ASN00009003	BELVOIR	-31.8	116
ASN00009017	FREMANTLE	-32.055	115.75
ASN00009022	GUILDFORD POST OFFICE	-31.8989	115.9719
ASN00009023	JARRAHDALE	-32.3342	116.0755
ASN00009025	MIDLAND	-31.8689	116.0167
ASN00009030	MUNDARING	-31.8972	116.1575
ASN00009033	NEW NORCIA	-30.9719	116.2089
ASN00009034	PERTH REGIONAL OFFICE	-31.95	115.8667
ASN00009038	ROTTNEST ISLAND LIGHTHOUSE	-32.0089	115.5022
ASN00009046	YATHROO	-30.7742	115.6975
ASN00009097	PERTH GARDENS	-31.95	115.85
ASN00009500	ALBANY	-35.0289	117.8808
ASN00009507	BANNISTER	-32.6836	116.5194
ASN00009514	BUNBURY POST OFFICE	-33.3267	115.63
ASN00009515	BUSSELTON SHIRE	-33.6611	115.3456
ASN00009596	PINJARRA	-32.6272	115.8747
ASN00010037	CUTTENING	-31.7264	117.7644
ASN00010058	GOOMALLING	-31.2994	116.8269
ASN00010090	MANGOWINE	-31	118.1
ASN00010111	NORTHAM	-31.6508	116.6586
ASN00010125	TOODYAY	-31.5453	116.4594
ASN00010131	CULHAM	-31.4	116.4667
ASN00010144	YORK POST OFFICE	-31.8836	116.7581
ASN00010515	BEVERLEY	-32.1083	116.9247
ASN00010582	KOJONUP	-33.83	117.159
ASN00010648	WANDERING COMPARISON	-32.6814	116.6756
ASN00010655	WILLIAMS	-33.0269	116.8792
ASN00010780	SUNNINGHILL	-32.4	117.0167
ASN00011003	EUCLA	-31.6797	128.8792
ASN00011019	EYRE	-32.2464	126.3008
ASN00011020	ISRAELITE BAY	-33.6	123.8
ASN00012074	SOUTHERN CROSS	-31.2319	119.3281
ASN00014007	BURRUNDIE RAILWAY STATION	-13.5333	131.7
ASN00014016	DARWIN POST OFFICE	-12.4	130.8
ASN00014086	BEATRICE HILL	-12.6495	131.3181
ASN00014129	BELYUEN	-12.538	130.6985
ASN00014163	DARWIN BOTANIC GARDENS	-12.4396	130.8376
ASN00014618	DALY WATERS	-16.253	133.37
ASN00014623	ELSEY	-14.9573	133.3299
ASN00014710	BORROLOOLA	-16.0667	136.3
ASN00014816	OLD DELAMERE	-15.7372	131.5345
ASN00014825	VICTORIA RIVER DOWNS	-16.403	131.0145
ASN00014902	KATHERINE COUNCIL	-14.4589	132.2572
ASN00014914	DALY RIVER MISSION	-13.7508	130.6886
ASN00014933	PINE CREEK	-13.8241	131.8372
ASN00015083	POWELL CREEK	-18.08	133.675
ASN00015086	NEWCASTLE WATERS	-17.3789	133.4099
ASN00015087	TENNANT CREEK POST OFFICE	-19.6475	134.1896
ASN00015088	ALEXANDRIA	-19.0579	136.7066
ASN00015524	IDRACOWRA	-24.9951	133.7876
ASN00015525	BARROW CREEK	-21.5317	133.8901
ASN00015531	HERMANNSBURG	-23.9409	132.7824
ASN00015540	ALICE SPRINGS POST OFFICE	-23.71	133.8683
ASN00015557	TEMPE DOWNS	-24.3996	132.4524
ASN00015597	CHARLOTTE WATERS	-25.9333	134.9167
ASN00016000	WOOMERA (ARCOONA)	-31.0228	137.0494
ASN00016005	PORT AUGUSTA (CARRIEWERLOO STN	-32.3997	137.225
ASN00016009	COONDAMBO	-31.0623	135.8659
ASN00016018	CORALBIGNIE	-32.62	136.3617
ASN00016029	MOONAREE	-31.9675	135.8742
ASN00016033	WOOMERA (OAKDEN HILLS)	-31.6611	137.0382
ASN00016038	PORT AUGUSTA WEST	-32.4827	137.7576
ASN00016043	WOOMERA (SOUTH GAP STATION)	-31.6338	137.6218
ASN00016055	YARDEA	-32.3792	135.5247
ASN00016056	YUDNAPINNA	-32.1232	137.1505
ASN00016061	WHITTATA	-31.735	137.42
ASN00016063	TARCOOLA (WILGENA DAMS)	-30.7283	134.6842
ASN00016067	MOUNT IVE	-32.4398	136.0671
ASN00017003	ANGORICHINA HOSTEL	-31.1281	138.5594
ASN00017004	ANNA CREEK	-28.8921	136.1688
ASN00017008	ARROWIE	-30.8536	139.2933
ASN00017011	BELTANA	-30.8133	138.4133
ASN00017012	BELTANA STATION	-30.8246	138.3822
ASN00017014	BLINMAN	-31.0939	138.6786
ASN00017018	COPLEY	-30.5564	138.4222
ASN00017019	CORDILLO DOWNS	-26.7061	140.6261
ASN00017020	MUNGERANIE (COWARIE)	-27.7017	138.3361
ASN00017024	MARREE (FARINA)	-30.066	138.2739
ASN00017027	INNAMINCKA POLICE CAMP	-27.8	140.7333
ASN00017028	INNAMINCKA STATION	-27.724	140.7633
ASN00017031	MARREE COMPARISON	-29.6481	138.0637
ASN00017034	MOUNT LYNDHURST	-30.1828	138.7093
ASN00017037	MULOORINA STATION (MULOORINA H	-29.239	137.9058
ASN00017048	GAMMON RANGES (UMBERATANA)	-30.2402	139.13
ASN00017053	WILLIAM CREEK	-28.9062	136.3386
ASN00017054	BLINMAN (WIRREALPA)	-31.1278	138.9618
ASN00017056	GAMMON RANGES (WOOLTANA)	-30.4132	139.4198
ASN00017060	TILCHA	-29.605	140.89
ASN00017061	STUARTS CREEK	-29.7	137.04
ASN00017062	CADELGA	-26.09	140.4067
ASN00017063	KANOWANA	-27.8383	139.6233
ASN00017065	EDIACARA	-30.3983	137.9033
ASN00017066	KILLALPANINNA	-28.6	138.5667
ASN00017067	MUNGERANIE	-28.0183	138.6637
ASN00017075	DALHOUSIE SPRINGS	-26.5167	135.4617
ASN00017080	LYNDHURST (FREELINGWELL)	-29.95	139.2333
ASN00017087	HADDON	-26.3517	140.8283
ASN00017088	PEECHYWARRINA	-29.0317	138.1917
ASN00017089	MUNGERANIE (KALAMURINA)	-27.7205	138.2548
ASN00017090	MONTACOLLINA	-29.4	139.9833
ASN00017092	WINTABATINGANA	-31.3333	138.2333
ASN00017094	PARALLANA	-30.2067	139.4558
ASN00017095	ALTON DOWNS	-26.1533	138.9383
ASN00017100	BLANCHEWATER STATION	-29.55	139.4667
ASN00017105	QUINYAMBIE	-30.215	140.9917
ASN00017109	THE PEAKE	-28.0767	135.9042
ASN00018003	BRAMFIELD POST OFFICE	-33.625	135.9983
ASN00018019	COULTA	-34.3853	135.4697
ASN00018022	COWELL	-33.6772	136.9116
ASN00018030	FOWLERS BAY	-31.99	132.4372
ASN00018045	SHERINGA (LAKE HAMILTON)	-33.9534	135.2682
ASN00018050	MILTALIE (POODRA)	-33.5983	136.8433
ASN00018056	MOUNT WEDGE	-33.4839	135.1592
ASN00018069	ELLISTON	-33.6501	134.888
ASN00018070	PORT LINCOLN	-34.7225	135.8558
ASN00018078	STOKES	-34.2942	135.9267
ASN00018079	STREAKY BAY	-32.7963	134.2116
ASN00018091	TUMBY BAY (WARRATTA VALE)	-34.2617	136.2092
ASN00018106	NULLARBOR	-31.4492	130.8976
ASN00018128	KARCULTABY	-32.7656	134.975
ASN00018142	YALATA	-31.9311	132.365
ASN00018153	IRON KNOB (CORUNNA)	-32.6858	137.1208
ASN00018155	LAKE WANGARY	-34.5517	135.4933
ASN00018157	UNO (GAWLER RANGES)	-32.6417	136.69
ASN00018159	WANGARALEEDNIE	-33.6833	136.6183
ASN00018160	YADNARIE	-33.7167	136.4175
ASN00019001	APPILA	-33.0524	138.4277
ASN00019002	QUORN (DEPOT FLAT)	-32.2507	137.9776
ASN00019003	OLD BARATTA HOMESTEAD	-31.9767	139.105
ASN00019004	BELTON (SHADOW VALE)	-32.2425	138.7105
ASN00019005	ORROROO (BLACK ROCK)	-32.8247	138.6907
ASN00019006	BOOLEROO CENTRE	-32.881	138.3519
ASN00019007	BOOLEROO (WIMONT)	-32.7775	138.341
ASN00019009	CARRIETON	-32.4244	138.5304
ASN00019010	CRADOCK	-32.0695	138.4948
ASN00019011	MURRAY TOWN (DOUGHBOY CREEK)	-32.9211	138.2202
ASN00019013	CARRIETON (EURELIA)	-32.5373	138.5626
ASN00019016	HAMMOND	-32.5201	138.3149
ASN00019017	HAWKER	-31.8846	138.435
ASN00019018	HAWKER (HOLOWILENA)	-31.8777	138.8372
ASN00019020	HORSESHOE RANGES	-32.3333	138.3833
ASN00019021	JOHNBURGH POST OFFICE	-32.4561	138.705
ASN00019023	MANNANARIE POST OFFICE	-33.0453	138.6178
ASN00019024	MELROSE	-32.8294	138.1907
ASN00019026	MUNDALLIO	-32.4686	137.8817
ASN00019029	PORT AUGUSTA (NECTAR BROOK)	-32.6944	137.9594
ASN00019030	QUORN (OLIVE GROVE)	-32.4683	138.0159
ASN00019032	ORROROO	-32.7335	138.6135
ASN00019034	PETERBOROUGH	-32.9737	138.8375
ASN00019036	PORT AUGUSTA POST OFFICE	-32.5	137.7667
ASN00019037	PORT GERMEIN	-33.0216	138.0002
ASN00019038	QUORN	-32.3538	138.0371
ASN00019040	QUORN (ROUND HILL)	-32.3114	138.2564
ASN00019042	MELROSE (PARA GUMS)	-32.8454	138.2116
ASN00019044	PORT GERMEIN (TELOWIE)	-33.0617	138.055
ASN00019046	HAWKER (WARCOWIE)	-31.775	138.6529
ASN00019048	WILMINGTON	-32.6521	138.1003
ASN00019050	HAWKER (WILSON)	-31.9883	138.3424
ASN00019052	WIRRABARA	-33.0338	138.2686
ASN00019053	WIRRABARA FOREST	-33.0856	138.2211
ASN00019056	CARRIETON (YACKARA)	-32.31	138.5233
ASN00019058	CARRIETON (YANYARRIE)	-32.3294	138.4706
ASN00019062	YONGALA	-33.0287	138.7489
ASN00019072	AMYTON EAST	-32.55	138.4167
ASN00019074	CAVENAGH WEST	-32.6833	138.9667
ASN00019075	PETERBOROUGH (DAWSON)	-32.8056	138.9739
ASN00019079	PORT AUGUSTA OSTRICH FARM	-32.4192	137.8189
ASN00019080	CARRIETON (PAMATTA)	-32.3139	138.6397
ASN00019081	STIRLING NORTH RAILWAY SIDING	-32.5033	137.81
ASN00019085	BAROOTA (MAMBRAY CREEK)	-32.8294	137.9869
ASN00019086	BAROOTA (MOPETA)	-32.8786	138.0158
ASN00019087	OODLAWIRRA (CAVENAGH)	-32.7189	139.0164
ASN00019088	CROZIER (FRESHWATER WELL)	-32.2892	137.8267
ASN00019089	HAMMOND (RIX)	-32.5167	138.3094
ASN00019090	QUORN (KINGSWOOD)	-32.3961	138.1339
ASN00019091	MOUNT REMARKABLE	-32.7981	138.2161
ASN00019093	CRADOCK (WIRREANDA)	-32.0361	138.4511
ASN00019094	YONGALA NATIONAL PARK	-33.0333	138.75
ASN00019096	QUORN RAILWAY	-32.3461	138.0397
ASN00019113	EDEOWIE	-31.448	138.4531
ASN00020000	BIMBOWRIE	-32.0498	140.162
ASN00020001	BOOLCOOMATTA	-31.9695	140.5436
ASN00020002	COCKBURN	-32.076	140.9969
ASN00020004	CURNOMONA (CURNAMONA)	-31.6516	139.5491
ASN00020006	FROME DOWNS	-31.2196	139.7763
ASN00020008	KOOMOOLOO	-33.5667	139.7
ASN00020010	KOONAMORE	-32.0646	139.382
ASN00020013	MANNA HILL	-32.4292	139.9887
ASN00020017	MUTOOROO	-32.4467	140.9233
ASN00020021	YUNTA (PARATOO)	-32.7268	139.4002
ASN00020023	WAUKARINGA	-32.3	139.45
ASN00020026	YUNTA	-32.5819	139.5611
ASN00020029	OUTALPA	-32.2167	140.15
ASN00020047	NETLEY	-32.7333	139.8333
ASN00021000	BRINKWORTH (ANAMA PARK)	-33.7321	138.4922
ASN00021001	AUBURN	-34.026	138.6846
ASN00021002	BALAKLAVA	-34.1424	138.4225
ASN00021003	BLYTH	-33.845	138.4901
ASN00021008	BUNDALEER FOREST RESERVE	-33.2758	138.575
ASN00021010	BRINKWORTH (BUNGAREE)	-33.7459	138.5628
ASN00021011	BURRA (KOORINGA)	-33.6833	138.9333
ASN00021012	BUTE	-33.8682	138.01
ASN00021013	CALTOWIE	-33.1851	138.4968
ASN00021014	CLARE POST OFFICE	-33.8364	138.6125
ASN00021015	SNOWTOWN (CONDOWIE)	-33.7045	138.2927
ASN00021016	CRYSTAL BROOK	-33.353	138.2057
ASN00021019	FARRELL FLAT	-33.8315	138.7917
ASN00021020	GEORGETOWN	-33.359	138.393
ASN00021021	GLADSTONE	-33.2705	138.357
ASN00021023	HALLETT	-33.4111	138.894
ASN00021025	CLARE (HILL RIVER)	-33.8347	138.6532
ASN00021026	HOYLETON	-34.0391	138.5579
ASN00021027	JAMESTOWN	-33.2036	138.6059
ASN00021028	HALLETT (KETCHOWLA)	-33.2917	139.2161
ASN00021029	KOOLUNGA	-33.5867	138.3343
ASN00021031	LAURA	-33.1851	138.3001
ASN00021036	MUNDOORA	-33.5946	138.0832
ASN00021037	NARRIDY POST OFFICE	-33.4275	138.3019
ASN00021039	BUTE (NINNES)	-33.9686	138.0186
ASN00021041	BURRA (POONUNDA)	-33.5616	139.0979
ASN00021042	PORT BROUGHTON	-33.6029	137.9348
ASN00021043	PORT PIRIE NYRSTAR COMPARISON	-33.1708	138.0104
ASN00021044	PORT WAKEFIELD	-34.1848	138.1478
ASN00021045	REDHILL	-33.5407	138.2244
ASN00021046	SNOWTOWN	-33.7844	138.2133
ASN00021050	TEROWIE	-33.1457	138.9208
ASN00021053	WANDEARAH NORTH	-33.3528	138.0311
ASN00021054	WATERVALE	-33.9606	138.6446
ASN00021055	WHYTE YARCOWIE	-33.2296	138.8844
ASN00021057	YACKA	-33.5707	138.4503
ASN00021058	SPALDING (YAKILO)	-33.5375	138.6736
ASN00021062	HALLETT (OLD CANOWIE)	-33.3041	138.7553
ASN00021071	NELSHABY RESERVOIR	-33.1297	138.1111
ASN00021081	MINTARO (KADLUNGA)	-33.9333	138.6833
ASN00021082	LEIGHTON (BUCKLAND HILLS)	-33.6372	138.8289
ASN00021083	MOUNT BRYAN ESTATE	-33.5	138.9667
ASN00021084	PORT PIRIE (VALENCIA)	-33.32	138.0131
ASN00021088	NANTAWARRA (DIXON)	-34.0167	138.2833
ASN00021089	BUTE (LINCOLNFIELDS)	-33.7578	137.9797
ASN00021090	GEORGE (AYLESBURY FARM)	-33.3931	138.4328
ASN00021095	GEORGETOWN (SPRINGFIELD)	-33.3506	138.4689
ASN00021096	WARNERTOWN (WILLOW LODGE)	-33.2467	138.1469
ASN00021097	BURRA (WILDILDIE)	-33.6036	139.0719
ASN00021098	JAMESTOWN (WYLMHURST)	-33.1961	138.6036
ASN00022000	ARDROSSAN	-34.4228	137.9175
ASN00022002	CORNY POINT	-34.9152	137.0625
ASN00022003	CURRAMULKA	-34.6981	137.7116
ASN00022004	EDITHBURGH POST OFFICE	-35.0875	137.7433
ASN00022005	GREEN PLAINS WEST	-34	137.9
ASN00022006	KADINA	-33.9551	137.6953
ASN00022007	MAITLAND (WOODBURLIE)	-34.3167	137.5333
ASN00022008	MAITLAND	-34.3745	137.6733
ASN00022009	MINLATON	-34.7708	137.5952
ASN00022011	MOONTA	-34.0672	137.5925
ASN00022012	PASKEVILLE	-34.0402	137.9004
ASN00022013	PORT VICTORIA	-34.4951	137.4836
ASN00022017	STANSBURY	-34.9122	137.7977
ASN00022018	WAROOKA	-34.9906	137.3995
ASN00022019	MAITLAND (WEETULTA)	-34.2428	137.5908
ASN00022020	WALLAROO	-33.9323	137.6282
ASN00022022	PORT CLINTON (YARAROO)	-34.1447	138.0146
ASN00022023	YORKETOWN	-35.0203	137.6064
ASN00022024	WALLAROO (WEYMOUTH JILLA)	-33.9167	137.65
ASN00022026	STANSBURY (DALRYMPLE)	-34.9333	137.75
ASN00022027	CORNY POINT LIGHTHOUSE	-34.9	137.0333
ASN00022800	AMERICAN RIVER	-35.7729	137.7788
ASN00022801	CAPE BORDA COMPARISON	-35.7529	136.5938
ASN00022803	CAPE WILLOUGHBY	-35.8426	138.1327
ASN00022807	KINGSCOTE	-35.6569	137.6364
ASN00022810	PENNESHAW 2	-35.7	137.9
ASN00023000	ADELAIDE WEST TERRACE	-34.9254	138.5869
ASN00023005	ADELAIDE (GLEN OSMOND)	-34.9464	138.6519
ASN00023009	MALLALA	-34.4385	138.5114
ASN00023010	MITCHAM POST OFFICE	-34.9833	138.6167
ASN00023011	NORTH ADELAIDE	-34.9167	138.5956
ASN00023020	ROSEWORTHY AGRIC COLLEGE	-34.5267	138.6883
ASN00023021	ROSEWORTHY	-34.5318	138.7489
ASN00023023	ADELAIDE (SALISBURY BOWLING CL	-34.7674	138.6434
ASN00023026	ADELAIDE (POORAKA)	-34.8321	138.6124
ASN00023027	ADELAIDE (THORNDON PARK)	-34.8744	138.6858
ASN00023028	TWO WELLS	-34.5953	138.5156
ASN00023030	VIRGINIA SHEEDY ROAD	-34.6694	138.5592
ASN00023045	GAWLER (LOOS)	-34.6167	138.7
ASN00023050	STOCKYARD CREEK	-34.2833	138.5833
ASN00023067	GAWLER CHURCH HILL	-34.6	138.7333
ASN00023068	CASTAMBUL	-34.85	138.7333
ASN00023069	BROOKSIDE	-34.8833	138.6833
ASN00023070	WOODVILLE (BOWER)	-34.8833	138.5333
ASN00023071	WOODVILLE (BIRKS)	-34.8833	138.5667
ASN00023078	GAWLER COUNCIL DEPOT	-34.5915	138.7393
ASN00023095	HAMLEY BRIDGE	-34.3579	138.6836
ASN00023300	ANGASTON	-34.5033	139.0452
ASN00023302	COLLINGROVE	-34.55	139.0833
ASN00023303	FREELING RAILWAY	-34.45	138.8167
ASN00023305	GREENOCK	-34.4577	138.9277
ASN00023307	KAPUNDA	-34.3412	138.9155
ASN00023308	KAPUNDA WATER WORKS	-34.35	138.9167
ASN00023309	LYNDOCH	-34.5927	138.8684
ASN00023311	MARRABEL	-34.1444	138.877
ASN00023312	NURIOOTPA	-34.4747	138.9928
ASN00023313	LYNDOCH (PEWSEY VALE)	-34.6167	138.9833
ASN00023314	RIVERTON	-34.158	138.7483
ASN00023315	SADDLEWORTH	-34.0844	138.7815
ASN00023316	STOCKPORT	-34.3333	138.7333
ASN00023317	STOCKWELL	-34.4364	139.0542
ASN00023318	TANUNDA	-34.5169	138.9598
ASN00023319	TARLEE	-34.2778	138.7725
ASN00023343	ROSEDALE (TURRETFIELD RESEARCH	-34.5519	138.8342
ASN00023346	KAPUNDA RESERVOIR	-34.3	138.85
ASN00023352	KAPUNDA HOSPITAL	-34.35	138.9167
ASN00023363	ROWLAND FLAT 4	-34.5833	138.9333
ASN00023701	ASHBOURNE	-35.3114	138.7517
ASN00023704	BELAIR (STATE FLORA NURSERY)	-35.0077	138.6498
ASN00023705	BIRDWOOD	-34.8148	138.9474
ASN00023707	BRIDGEWATER	-35.0102	138.7602
ASN00023708	SECOND VALLEY (SPRING GROVE)	-35.5667	138.2333
ASN00023710	CLARENDON	-35.1087	138.6256
ASN00023712	DINGO VALE	-34.8667	138.8333
ASN00023713	ECHUNGA GOLF COURSE	-35.096	138.7887
ASN00023718	GOOLWA COUNCIL DEPOT	-35.4987	138.7638
ASN00023719	GUMERACHA	-34.8237	138.8859
ASN00023720	HAHNDORF	-35.0303	138.8148
ASN00023721	HAPPY VALLEY RESERVOIR	-35.0608	138.5647
ASN00023724	KANMANTOO	-35.0739	139.0036
ASN00023726	LOBETHAL	-34.9044	138.8742
ASN00023728	MACCLESFIELD	-35.189	138.8262
ASN00023730	MEADOWS	-35.1782	138.7629
ASN00023732	ADELAIDE (MORPHETT VALE)	-35.1351	138.5274
ASN00023733	MOUNT BARKER	-35.0639	138.8509
ASN00023737	MOUNT PLEASANT	-34.7735	139.0501
ASN00023739	NAIRNE	-35.0369	138.913
ASN00023740	OLD NOARLUNGA POST OFFICE	-35.185	138.5017
ASN00023741	NORMANVILLE	-35.4519	138.3227
ASN00023742	PORT ELLIOT CARAVAN PARK	-35.5299	138.6896
ASN00023744	SECOND VALLEY (POOLAMACCA)	-35.5359	138.234
ASN00023745	STIRLING	-35.0333	138.7167
ASN00023746	STONYFELL	-34.9333	138.6667
ASN00023747	STRATHALBYN	-35.256	138.8901
ASN00023748	ADELAIDE (TEA TREE GULLY COUNC	-34.8307	138.7051
ASN00023751	VICTOR HARBOR COMPARISON	-35.555	138.6217
ASN00023752	WILLIAMSTOWN	-34.6717	138.8885
ASN00023753	WILLUNGA	-35.2705	138.5591
ASN00023760	HINDMARSH VALLEY	-35.5	138.6167
ASN00023764	MOUNT LOFTY (HARDYS)	-34.9833	138.7167
ASN00023769	BATTUNGA	-35.1167	138.8667
ASN00023773	CAPE JERVIS LIGHTHOUSE	-35.6167	138.0833
ASN00023778	MOUNT TORRENS	-34.8833	138.9667
ASN00023779	STURT	-35.0167	138.5667
ASN00023782	YANKALILLA (WOODVALE)	-35.4833	138.3833
ASN00023793	MYLOR	-35.05	138.7667
ASN00023794	WARRAKILLA	-35.0667	138.7333
ASN00023795	WOODBURN	-35.3	138.9833
ASN00023797	PORT ELLIOTT	-35.5167	138.6667
ASN00023829	WOODSIDE	-34.9516	138.8754
ASN00024003	RENMARK IRRIGATION	-34.1658	140.7541
ASN00024012	OVERLAND CORNER	-34.1479	140.3256
ASN00024016	RENMARK	-34.1711	140.7494
ASN00024027	PARINGA	-34.1833	140.8
ASN00024503	BLANCHETOWN	-34.3522	139.6117
ASN00024508	CALLINGTON	-35.125	139.0433
ASN00024511	EUDUNDA	-34.1754	139.0847
ASN00024515	LANGHORNE CREEK	-35.2959	139.0328
ASN00024517	MANNUM COUNCIL DEPOT	-34.9145	139.301
ASN00024518	MENINGIE	-35.6902	139.3375
ASN00024519	MILANG	-35.4068	138.9701
ASN00024520	MORGAN POST OFFICE	-34.0333	139.6667
ASN00024521	MURRAY BRIDGE COMPARISON	-35.1234	139.2592
ASN00024530	SEDAN (SANDLETON)	-34.4584	139.3597
ASN00024531	SEDAN	-34.5719	139.2961
ASN00024538	WELLINGTON EAST	-35.3333	139.3833
ASN00024540	WELLINGTON STATION	-35.3	139.4
ASN00024541	DILKARA (FLORIETON)	-33.85	139.4167
ASN00024548	NORTH WEST BEND	-34.0667	139.8
ASN00024573	TRURO	-34.4085	139.1274
ASN00025015	PINNAROO	-35.268	140.9075
ASN00025501	BORDERTOWN	-36.3125	140.7718
ASN00025504	COONALPYN	-35.6984	139.8633
ASN00025510	MUNDULLA	-36.3667	140.7
ASN00025519	WOLSELEY	-36.3654	140.9096
ASN00025522	KONGAL	-36.2667	140.45
ASN00025533	CANNAWIGARA	-36.2833	140.6667
ASN00026000	BEACHPORT	-37.4861	140.0115
ASN00026005	CAPE NORTHUMBERLAND	-38.0573	140.6725
ASN00026007	FRANCES	-36.7124	140.9552
ASN00026012	KINGSTON SE	-36.8309	139.8526
ASN00026016	LUCINDALE POST OFFICE	-36.9731	140.3664
ASN00026018	MILLICENT	-37.5872	140.3426
ASN00026020	MOUNT GAMBIER POST OFFICE	-37.8333	140.7833
ASN00026023	NARACOORTE	-36.9564	140.7402
ASN00026024	NARACOORTE CAVE RANGE	-37.0333	140.8
ASN00026025	PENOLA POST OFFICE	-37.3803	140.8379
ASN00026026	ROBE COMPARISON	-37.1628	139.756
ASN00026046	MORAMBRO STATION	-36.7833	140.5833
ASN00026047	GLENCOE STATION	-37.7	140.6167
ASN00027004	CAPE YORK POST OFFICE	-10.7	142.5333
ASN00027005	COEN POST OFFICE	-13.9447	143.2006
ASN00027013	MCDONNELL STATION	-11.55	142.4667
ASN00027014	MEIN STATION	-13.1833	142.8
ASN00027015	MORETON TELEGRAPH STATION	-12.4536	142.6389
ASN00027021	THURSDAY ISLAND TOWNSHIP	-10.5831	142.2203
ASN00027052	PROUDFOOT SHOAL	-10.5333	141.45
ASN00028002	MAYTOWN	-16.05	144.3
ASN00028004	PALMERVILLE	-16.0008	144.0758
ASN00028007	MUSGRAVE	-14.7803	143.5036
ASN00029001	AUGUSTUS DOWNS STATION	-18.5447	139.8706
ASN00029003	AUCKLAND DOWNS STATION	-20.25	141.7667
ASN00029004	BURKETOWN POST OFFICE	-17.7425	139.5475
ASN00029005	BUNDA BUNDA	-20.0744	142.2089
ASN00029008	CLONCURRY MCILLWRAITH ST	-20.7089	140.5192
ASN00029012	CROYDON TOWNSHIP	-18.2044	142.2447
ASN00029013	DONORS HILL STATION	-18.7139	140.5472
ASN00029017	EULOLO STATION	-21.2333	141.55
ASN00029019	GILBERT RIVER POST OFFICE	-18.15	142.85
ASN00029022	GRANADA STATION	-20.0919	140.3675
ASN00029031	LAWN HILL	-18.5806	138.5811
ASN00029034	MCKINLAY ROADHOUSE	-21.2719	141.2892
ASN00029041	NORMANTON POST OFFICE	-17.6706	141.0672
ASN00029066	RIVERSLEIGH STATION	-19.0281	138.7408
ASN00029070	GREEN CREEK	-18.05	142
ASN00029071	FLORAVILLE DOWNS STATION	-18.2281	139.8739
ASN00029072	KARUMBA PILOT STATION	-17.4667	140.8333
ASN00029075	FORT CONSTANTINE STATION	-20.4747	140.5828
ASN00029097	DONALDSON STATION	-20.1	140.6333
ASN00029098	PENOLA DOWNS STATION	-21.5169	141.4478
ASN00029129	DEVONCOURT STATION	-21.215	140.2333
ASN00029132	MANFRED DOWNS STATION	-20.6556	142.1006
ASN00030007	CAMBRIDGE DOWNS STATION	-20.4333	142.9667
ASN00030011	CHUDLEIGH PARK STATION	-19.7	144.1167
ASN00030013	CUMBERLAND STATION	-18.3	143.4
ASN00030018	GEORGETOWN POST OFFICE	-18.2922	143.5483
ASN00030024	HUGHENDEN POST OFFICE	-20.8447	144.1986
ASN00030030	LYNDHURST STATION	-19.2039	144.37
ASN00030031	MARATHON RAILWAY STATION	-20.8667	143.5667
ASN00030036	MOUNT SURPRISE TOWNSHIP	-18.1472	144.3183
ASN00030039	OAK PARK STATION	-19.2544	144.1536
ASN00030040	PENTLAND POST OFFICE	-20.5236	145.3989
ASN00030041	PRAIRIE POST OFFICE	-20.8708	144.6
ASN00030064	REDCLIFF STATION	-21.0167	144.3833
ASN00030126	JUNCTION CREEK STATION	-18.2667	144.4
ASN00030133	KYNUNA	-21.5778	141.9189
ASN00031010	CAIRNS POST OFFICE	-16.9333	145.7833
ASN00031016	COOKTOWN POST OFFICE	-15.4633	145.25
ASN00031026	GLEN BOUGHTON	-16.95	145.8
ASN00031029	HERBERTON WHITE ST	-17.5851	145.3869
ASN00031032	IRVINEBANK	-17.4311	145.2028
ASN00031037	LOW ISLES LIGHTHOUSE	-16.3842	145.5592
ASN00031052	PORT DOUGLAS - WARNER ST	-16.484	145.4643
ASN00031095	THORNBOROUGH	-16.95	145
ASN00032004	CARDWELL MARINE PDE	-18.2553	146.0197
ASN00032007	CASHMERE	-18.15	145.35
ASN00032021	GOONDI MILL CSR	-17.5167	146.0167
ASN00032025	INNISFAIL	-17.5249	146.0345
ASN00032044	VALLEY OF LAGOONS	-18.6608	145.1031
ASN00032047	TOWNSVILLE PILOT STATION	-19.2667	146.8167
ASN00032104	CHRISTMAS CREEK STATION	-19.0947	145.3539
ASN00033001	BURDEKIN SHIRE COUNCIL	-19.5775	147.4075
ASN00033005	BLOOMSBURY POST OFFICE	-20.7	148.6
ASN00033007	BOWEN POST OFFICE	-20.0167	148.25
ASN00033019	EMU PARK HILL ST	-23.2658	150.8233
ASN00033033	INKERMAN STATION	-19.7628	147.4567
ASN00033035	KALAMIA ESTATE	-19.5244	147.4161
ASN00033046	MACKAY POST OFFICE	-21.15	149.1833
ASN00033050	MARLBOROUGH POST OFFICE	-22.8131	149.89
ASN00033054	NEBO	-21.6889	148.6881
ASN00033061	PROSERPINE POST OFFICE	-20.4	148.5833
ASN00033062	RAVENSWOOD POST OFFICE	-20.0997	146.8892
ASN00033065	ST LAWRENCE POST OFFICE	-22.3458	149.5356
ASN00033117	KEPPLE BAY 2	-23.1833	150.9667
ASN00033121	ALEXANDRA	-21.1833	149.1
ASN00033123	FANNING RIVER STATION	-19.7333	146.4333
ASN00033185	TIERAWOOMBA	-21.8547	149.0356
ASN00033243	BROMBY PARK	-20.6167	148.4667
ASN00034000	BALFES CREEK POST OFFICE	-20.2161	145.9089
ASN00034002	CHARTERS TOWERS POST OFFICE	-20.0781	146.2614
ASN00034014	GROSVENOR DOWNS	-22.0333	148.0833
ASN00034072	LOGAN DOWNS	-22.3833	147.9333
ASN00034073	SALTBUSH PARK	-22.1367	148.9136
ASN00034081	AVON DOWNS	-21.85	147.25
ASN00035000	ALPHA POST OFFICE	-23.65	146.6406
ASN00035013	BOGANTUNGAN POST OFFICE	-23.6481	147.29
ASN00035019	CLERMONT SIRIUS ST	-22.8239	147.6425
ASN00035023	CRAVEN	-23.2	147.0833
ASN00035026	DUARINGA POST OFFICE	-23.7139	149.6725
ASN00035027	EMERALD POST OFFICE	-23.5267	148.1617
ASN00035035	HUNTLY	-22.7	147.9
ASN00035037	KILCUMIN	-22.3833	147.5167
ASN00035042	MANTUAN DOWNS	-24.4125	147.2464
ASN00035045	MOUNT PLAYFAIR	-24.9	146.9833
ASN00035047	NARADA DOWNS	-24.9833	146.1
ASN00035049	GILLESPIE	-24.5608	145.7869
ASN00035051	ORION	-24.2644	148.3825
ASN00035052	PEAK DOWNS	-23	148.0167
ASN00035054	PINE HILL RAILWAY STATION	-23.6497	146.95
ASN00035056	RAINWORTH	-24.125	147.9283
ASN00035059	ROLLESTON	-24.4619	148.6261
ASN00035065	SPRINGSURE COMET ST	-24.123	148.0856
ASN00035069	TAMBO POST OFFICE	-24.8819	146.2564
ASN00035070	TAROOM POST OFFICE	-25.6408	149.7958
ASN00035071	TELEMON STATION	-24.1858	147.72
ASN00035076	JUANDAH	-26.1333	149.9667
ASN00035077	WARRINILLA	-24.9214	148.6006
ASN00035099	LORNE	-24.8	145.3
ASN00035103	LANSDOWNE STATION	-25.0636	146.2653
ASN00035189	CONSUELO	-24.6553	148.4594
ASN00035190	MINNIE DOWNS	-25.0311	145.8664
ASN00035289	MT PLAYFAIR	-24.8639	146.9478
ASN00036000	ALICE POST OFFICE	-23.5667	145.7833
ASN00036004	ARAMAC POST OFFICE	-22.9717	145.245
ASN00036007	BARCALDINE POST OFFICE	-23.5544	145.2883
ASN00036008	BOWEN DOWNS	-22.4672	145.005
ASN00036012	CAMERON DOWNS	-21.3747	144.2794
ASN00036018	ELGIN DOWNS	-22.0033	146.9219
ASN00036022	EVESHAM STATION	-23.0311	143.7117
ASN00036025	ISIS DOWNS	-24.2217	143.6325
ASN00036026	ISISFORD POST OFFICE	-24.2591	144.4406
ASN00036032	MANEROO	-23.3667	143.8833
ASN00036033	MALVERN HILLS	-24.5	145.15
ASN00036037	MUTTABURRA	-22.595	144.5469
ASN00036039	PORTLAND DOWNS	-24.1333	144.5833
ASN00036041	RUTHVEN	-24.3333	144.1833
ASN00036048	UANDA	-21.6039	144.9033
ASN00036051	WESTLAND	-23.9683	143.8239
ASN00036054	EVORA STATION	-24.0825	145.5092
ASN00036056	LANDSBOROUGH DOWNS	-21.5114	144.3989
ASN00036057	MOUNT CORNISH	-22.6	144.6
ASN00036062	KENSINGTON DOWNS	-22.5	144.2
ASN00036115	TOWER HILL	-22.05	144.6
ASN00036133	MILO STATION	-25.7211	144.5003
ASN00036137	LISTOWEL DOWNS	-25.2011	145.2269
ASN00036139	SURBITON STATION	-22.9856	146.6189
ASN00036143	BLACKALL TOWNSHIP	-24.4214	145.4672
ASN00036150	ROCKWOOD	-21.8	144.2667
ASN00036151	STAINBURN DOWNS	-22.8667	145.1
ASN00036152	HIGHLANDS	-24.95	144.4333
ASN00037001	AYRSHIRE DOWNS	-21.9678	142.7214
ASN00037005	BIMERAH	-24.2189	143.5781
ASN00037011	CARANDOTTA STATION	-21.9714	138.6117
ASN00037014	CORK STATION	-22.9258	142.3119
ASN00037015	CORONA DOWNS	-23.1258	143.4619
ASN00037016	DAGWORTH STATION	-21.8664	142.1544
ASN00037024	HEADINGLY STATION	-21.3225	138.2906
ASN00037025	KATANDRA	-21.55	143.8031
ASN00037027	LLANRHEIDOL STATION	-22.2833	141.6
ASN00037031	MANUKA	-21.7167	143.4
ASN00037046	ELDERSLIE	-22.2903	142.4731
ASN00037049	WARRNAMBOOL DOWNS	-22.8131	142.8325
ASN00037051	WINTON POST OFFICE	-22.3908	143.0386
ASN00037064	NORANSIDE	-22.1667	140
ASN00037070	OONDOOROO RAILWAY STN	-22.1667	143.0833
ASN00038003	BOULIA AIRPORT	-22.9117	139.9039
ASN00038007	CURRAWILLA STATION	-25.1425	141.3456
ASN00038012	JUNDAH POST OFFICE	-24.8303	143.9331
ASN00038015	MONKIRA	-24.8217	140.5558
ASN00038023	TANBAR STATION	-25.8417	141.9189
ASN00038024	WINDORAH POST OFFICE	-25.4228	142.6564
ASN00038029	CONNEMARRA STATION	-24.2167	142.2667
ASN00038057	WELFORD LAGOONS	-25.1667	143.3333
ASN00039003	BANANA POST OFFICE	-24.4719	150.1292
ASN00039015	BUNDABERG POST OFFICE	-24.8667	152.3467
ASN00039018	BUSTARD HEAD LIGHTHOUSE	-24.0222	151.7642
ASN00039022	CAMBOON STATION	-25.0303	150.4342
ASN00039028	CRACOW STORE	-25.2967	150.3047
ASN00039033	DEGILBO RAIL STN	-25.4833	152
ASN00039037	FAIRYMEAD SUGAR MILL	-24.7936	152.3594
ASN00039039	GAYNDAH POST OFFICE	-25.6258	151.6094
ASN00039041	GLADSTONE POST OFFICE	-23.8333	151.25
ASN00039051	HAWKWOOD STATION	-25.7833	150.8167
ASN00039063	MILLAQUIN SUGAR	-24.85	152.3667
ASN00039065	MIRIAM VALE	-24.3278	151.5692
ASN00039070	MT PERRY THE PINES	-25.1694	151.6375
ASN00039082	ROCKHAMPTON POST OFFICE	-23.4	150.5
ASN00039085	SANDY CAPE LIGHTHOUSE	-24.7298	153.2089
ASN00039098	WESTWOOD STORE	-23.6211	150.1569
ASN00039230	LANGMORN	-23.8347	150.7539
ASN00040014	BEAUDESERT CRYNA	-28.0206	153.0131
ASN00040016	BEENLEIGH POST OFFICE	-27.7167	153.1833
ASN00040025	BOONARA	-26.0833	152.05
ASN00040038	CABOOLTURE POST OFFICE	-27.085	152.9517
ASN00040043	CAPE MORETON LIGHTHOUSE	-27.0314	153.4661
ASN00040047	CLEVELAND BOWLS CLUB	-27.5253	153.2756
ASN00040075	ESK POST OFFICE	-27.2397	152.4219
ASN00040085	GLENCLIFFE	-26.8167	151.65
ASN00040093	GYMPIE	-26.1831	152.6414
ASN00040096	HELIDON POST OFFICE	-27.5504	152.1246
ASN00040101	IPSWICH	-27.6117	152.7608
ASN00040104	ENGLESBERG VILLAGE	-27.949	152.6235
ASN00040111	KILKIVAN POST OFFICE	-26.0858	152.2381
ASN00040114	LAIDLEY POST OFFICE	-27.6322	152.3919
ASN00040120	LOWOOD DON ST	-27.4617	152.5747
ASN00040124	MARBURG - WARREGO HIGHWAY	-27.5675	152.6053
ASN00040126	MARYBOROUGH	-25.5161	152.7156
ASN00040136	MOOLOOLAH POST OFFICE	-26.7661	152.9622
ASN00040150	MUNDOOLIN	-27.905	153.0933
ASN00040158	NANANGO WILLS ST	-26.6756	151.9939
ASN00040160	NERANG GILSTON RD	-28.0092	153.3175
ASN00040171	AMCOR - PETRIE MILL	-27.2692	152.9839
ASN00040179	REDBANK POST OFFICE	-27.6	152.8667
ASN00040180	MARGATE COLLINS ST	-27.2517	153.1008
ASN00040190	SOUTHPORT RIDGEWAY AVE	-27.9832	153.4054
ASN00040197	MT TAMBORINE FERN ST	-27.9695	153.1952
ASN00040210	INSKIP POINT LIGHTHOUSE	-25.8167	153.05
ASN00040214	BRISBANE REGIONAL OFFICE	-27.4778	153.0306
ASN00040225	ENOGGERA RESERVOIR	-27.4447	152.9286
ASN00040226	GOODNA AMPOL	-27.6081	152.8975
ASN00040229	INDOOROOPILLY BOWLS CLUB	-27.4992	152.9769
ASN00040230	GOLD CREEK RESERVOIR	-27.4606	152.8811
ASN00040242	SANDGATE POST OFFICE	-27.3233	153.07
ASN00040244	SUNNYBANK BOWLS CLUB	-27.5756	153.0583
ASN00040252	WOODFORD POST OFFICE	-26.9558	152.7792
ASN00040253	WOODY ISLAND	-25.3	152.95
ASN00040262	YENGARIE RAILWAY STATION	-25.5667	152.6167
ASN00040337	ST HELENA ISLAND	-27.3833	153.2167
ASN00040344	BULIMBA	-27.45	153.05
ASN00040350	WOOLOOWIN	-27.4333	153.05
ASN00040358	LYTTON	-27.4	153.15
ASN00040374	FRANKLYN VALE	-27.7594	152.4564
ASN00040586	MILLBROOK	-27.9167	151.75
ASN00040629	CORINDA	-27.5333	152.9833
ASN00041001	ALLORA POST OFFICE	-28.0356	151.9983
ASN00041003	BALGOWNIE WEST	-27.8297	151.6767
ASN00041010	CALLANDOON	-28.5	150.1
ASN00041011	CAMBOOYA POST OFFICE	-27.7072	151.865
ASN00041013	CANNING DOWNS	-28.2264	152.0661
ASN00041016	CECIL PLAINS HOMESTEAD	-27.5331	151.2025
ASN00041017	CHINCHILLA WATER TREATMENT PLA	-26.7422	150.6033
ASN00041019	CONDAMINE PLAINS	-27.7233	151.2869
ASN00041021	COPMANHURST	-27.6667	150.6167
ASN00041022	DALVEEN	-28.5	151.9722
ASN00041023	DALBY POST OFFICE	-27.1839	151.2639
ASN00041034	GLENELG	-28.4039	151.4703
ASN00041035	GLENGALLAN	-28.1	152.1
ASN00041038	GOONDIWINDI POST OFFICE	-28.5481	150.3075
ASN00041047	INGLEWOOD POST OFFICE	-28.4147	151.0828
ASN00041051	JIMBOUR STATE SCHOOL	-26.9583	151.2125
ASN00041053	JONDARYAN POST OFFICE	-27.3675	151.5897
ASN00041056	KILLARNEY POST OFFICE	-28.3344	152.2953
ASN00041063	LEYBURN POST OFFICE	-28.0106	151.5856
ASN00041081	PIKEDALE	-28.65	151.6
ASN00041082	PITTSWORTH	-27.7156	151.6333
ASN00041095	STANTHORPE LESLIE PARADE	-28.6617	151.9339
ASN00041101	TEXAS STATION	-28.85	151.15
ASN00041103	TOOWOOMBA	-27.5836	151.9317
ASN00041111	WARWICK POST OFFICE	-28.2167	152.0333
ASN00041116	WALLANGARRA POST OFFICE	-28.9231	151.9306
ASN00041117	WARRA POST OFFICE	-26.9308	150.925
ASN00041153	BON ACCORD	-27.6	151.2
ASN00041154	BLINKBONNIE	-28.15	152.1
ASN00041156	BRAESIDE	-28.4	151.9
ASN00041157	BRI BRI	-27.6833	151.95
ASN00041158	YANDILLA	-27.85	151.3667
ASN00041160	MAIANBAR	-28	152.15
ASN00041452	GOWRIE STATION 2	-27.5	151.8167
ASN00041455	THE LAURELS	-27.5667	151.9667
ASN00042023	MILES POST OFFICE	-26.6581	150.1844
ASN00042030	BUNGUNYA SCHOOL	-28.4278	149.6533
ASN00042039	BULLAMON STATION	-28.7333	148.6333
ASN00042059	AUBURN	-25.9525	150.6142
ASN00042071	TANDAWANNA	-28.3667	149.7
ASN00043004	BINDANGO	-26.4833	148.4833
ASN00043009	FOREST VALE	-25.9281	147.8717
ASN00043012	ROCKDALE	-27.0689	149.25
ASN00043020	MITCHELL POST OFFICE	-26.4888	147.9777
ASN00043022	MOUNT ABUNDANCE	-26.6	148.7167
ASN00043030	ROMA POST OFFICE	-26.5719	148.7897
ASN00043034	ST GEORGE POST OFFICE	-28.0361	148.5814
ASN00043035	SURAT	-27.159	149.0703
ASN00043039	WERIBONE	-27.3442	148.8781
ASN00043043	YULEBA GARDEN ST	-26.6133	149.3878
ASN00043047	EURELLA	-26.6	148.2
ASN00044002	AUGATHELLA POST OFFICE	-25.7956	146.5858
ASN00044004	BEECHAL	-27.1383	144.7392
ASN00044006	BIDDENHAM	-25.8031	146.425
ASN00044007	BIERBANK	-26.7756	145.0708
ASN00044010	BOLLON MARY ST	-28.0336	147.4803
ASN00044012	BOORARA	-28.6575	144.3808
ASN00044014	BUNDALEER	-28.7	146.55
ASN00044016	BURENDA	-25.7661	146.7333
ASN00044018	CAIWARRO	-28.7	144.7833
ASN00044022	CHARLEVILLE POST OFFICE	-26.4025	146.2381
ASN00044024	COONGOOLA	-27.65	145.9
ASN00044025	COWLEY STATION	-26.9044	144.8272
ASN00044026	CUNNAMULLA POST OFFICE	-28.0706	145.6808
ASN00044027	CURRAWINYA	-28.8333	144.4833
ASN00044029	DILLALAH	-26.8583	146.0278
ASN00044030	DIRRANBANDI HIGH SCHOOL	-28.5758	148.2297
ASN00044031	DYNEVOR DOWNS	-28.0911	144.3586
ASN00044032	EULO POST OFFICE	-28.16	145.0467
ASN00044040	GUMBARDO	-26.1108	144.8728
ASN00044050	MORVEN POST OFFICE	-26.4156	147.1131
ASN00044052	MOUNT MORRIS	-25.8128	145.5731
ASN00044055	KYNNERSLEY	-27.0667	145.9167
ASN00044057	NIVE DOWNS	-25.4992	146.5442
ASN00044058	NOONDOO	-28.6	148.4
ASN00044059	NOORAMA	-28.7008	146.2336
ASN00044061	OAKWOOD	-25.6833	146.1333
ASN00044081	CHARLOTTE PLAINS	-28.0814	146.1797
ASN00044085	HUMEBURN	-27.3933	145.2117
ASN00044093	WOOLERINA	-28.5333	147.4
ASN00044096	CURRIWILLINGHI	-28.95	147.8667
ASN00044149	LANGLO DOWNS	-25.5333	145.7833
ASN00044150	KAHMOO	-28.0967	145.5075
ASN00044154	WHYENBAH	-28.3875	148.3111
ASN00044178	DOONDI	-28.2503	148.4644
ASN00044181	HUNGERFORD	-28.9972	144.4094
ASN00044183	DRYSDALE PONDS	-27.3833	148.1333
ASN00045000	ADAVALE POST OFFICE	-25.9167	144.6
ASN00045003	SOUTH COMONGIN	-26.9011	144.3386
ASN00045010	MT HOWITT	-26.5122	142.2731
ASN00045011	MOUNT MARGARET	-26.8989	143.3381
ASN00045014	NORLEY STATION	-27.7722	143.8728
ASN00045017	THARGOMINDAH POST OFFICE	-27.9978	143.8197
ASN00045051	BULGROO STATION	-25.7911	143.7036
ASN00045053	THARGOMINDAH STATION	-28.0167	143.8
ASN00045054	TICKALARA	-28.65	142.2
ASN00046003	YANCO GLEN (CORONA HOMESTEAD)	-31.2873	141.4437
ASN00046004	WILCANNIA (CULPAULIN)	-31.7333	143.2167
ASN00046007	GNALTA	-31.05	142.3333
ASN00046015	BROKEN HILL  (LANGAWIRRA)	-31.4459	142.1352
ASN00046017	WILCANNIA (MENA MURTEE)	-31.4167	143.1667
ASN00046018	MILPARINKA HOTEL	-29.7377	141.8841
ASN00046022	WILCANNIA (MOUNT MURCHISON)	-31.4469	143.6548
ASN00046025	NELYAMBO	-31.1667	144.1167
ASN00046027	BROKEN HILL (NUNTHERUNGIE)	-30.8	142.4833
ASN00046031	WHITE CLIFFS (PURNANGA)	-30.45	143.3167
ASN00046034	WHITE CLIFFS (TARELLA)	-31.0225	143.0378
ASN00046037	TIBOOBURRA POST OFFICE	-29.4345	142.0098
ASN00046038	WHITE CLIFFS (TONGO)	-30.4921	143.7456
ASN00046039	WANAARING (URISINO)	-29.7258	143.7607
ASN00046041	TILPA (WARLOO)	-31.1833	144.1
ASN00046043	WILCANNIA  (REID ST)	-31.5631	143.3747
ASN00046046	YALCOWINNA	-31.7167	141.7833
ASN00046048	WHITE CLIFFS (YANCANNIA)	-30.2667	142.7833
ASN00046049	MILPARINKA (YANDAMA DOWNS)	-29.6833	141.4167
ASN00046056	CULTOWA	-31.4	144
ASN00046058	ELSINORA	-29.5	143.5833
ASN00046061	FORTY EIGHT MILE TANK	-31.85	143.5
ASN00046064	GOORIMPA	-30.3	144
ASN00046067	MOMBA	-30.9667	143.3167
ASN00046069	MOUNT GIPPS	-31.8833	141.6333
ASN00046073	PURNAMOOTA	-31.7	141.45
ASN00046077	SALISBURY DOWNS	-30	142.7833
ASN00046079	WANAARING (THURLOO DOWNS)	-29.2908	143.4812
ASN00046087	POOLAMACCA	-31.5	141.4
ASN00046088	LAKE BOULKA	-30.0333	141.8667
ASN00046094	WHITE CLIFFS (WONNAMINTA)	-30.6322	142.3219
ASN00046097	LAKE COBHAM	-30.15	142.0833
ASN00046098	NUNDORA	-30.7333	142.0333
ASN00046099	MOUNT POOLE	-29.6667	141.7833
ASN00046102	CUTHAWANA 2	-31.55	142.6333
ASN00046106	TINAPAGEE	-29.4667	144.3833
ASN00046109	YANTABANGEE TANK	-30.6	143.6833
ASN00046114	EURIOWIE TANK	-31.4333	141.6167
ASN00046120	WILCANNIA (MELROSE)	-31.7	143.2167
ASN00046121	WILCANNIA (ARDMORE)	-31.4667	143.4
ASN00047000	GUM LAKE (ALBEMARLE)	-32.5277	143.3698
ASN00047002	ARUMPO	-33.75	142.9
ASN00047003	WENTWORTH (AVOCA)	-33.9333	141.9667
ASN00047005	WILCANNIA (BILLILLA)	-31.832	143.1507
ASN00047006	BINDARA (NETLEY)	-32.75	142.3
ASN00047007	BROKEN HILL (PATTON STREET)	-31.9759	141.4676
ASN00047008	COCKBURN  (BURTA)	-32.4555	141.0784
ASN00047009	WENTWORTH (CUTHERO)	-33.0333	142.3667
ASN00047010	BROKEN HILL (GLEN LYON)	-31.8833	142.5
ASN00047013	POONCARIE (KARPA KORA STATION)	-32.9669	143.1071
ASN00047015	KINCHEGA	-32.45	142.4
ASN00047017	LAKE VICTORIA (CAL-LAL)	-34.0833	141.1833
ASN00047019	MENINDEE POST OFFICE	-32.3937	142.4173
ASN00047020	POONCARIE (MOORARA)	-33.2158	142.3868
ASN00047021	MOORNA	-34.1333	141.6
ASN00047022	IVANHOE (MT MANARA)	-32.4757	143.9409
ASN00047024	POONCARIE (MULURULU STATION)	-33.3393	143.3986
ASN00047027	NETLEY	-32.5833	141.45
ASN00047029	POONCARIE MAIL AGENCY	-33.3856	142.5696
ASN00047030	SILVERTON POST OFFICE	-31.8833	141.2167
ASN00047033	POONCARIE (TARCOOLA)	-33.4268	142.5719
ASN00047034	TERYAWYNIA	-32.2	143.6
ASN00047036	WILCANNIA (BURNDOO ESTATE)	-32.0667	143.65
ASN00047040	WENTWORTH (WAMBERRA STATION)	-33.9297	142.3572
ASN00047043	MENINDEE (WEINTERIGA)	-32.1036	142.9236
ASN00047047	TOLARNO	-32.7833	142.3833
ASN00047053	WENTWORTH POST OFFICE	-34.1065	141.9189
ASN00047054	IVANHOE (BEILPAJAH)	-32.9667	143.8167
ASN00047062	BROKEN HILL (BUCKALOW)	-32.6569	141.2376
ASN00047067	POPLITAH	-33.2	141.75
ASN00047071	TAPIO	-34	142
ASN00047072	TAREENA	-33.9667	141.0333
ASN00047077	RUFUS RIVER (BELLSGROVE)	-34.05	141.15
ASN00047082	PANBAN	-33.2833	143.1833
ASN00047086	BOOLA BOOLKA	-32.3333	143
ASN00047087	TINTINALLOGY STATION	-32.0833	142.9833
ASN00047091	COONBAH	-32.9833	141.6167
ASN00047093	WENTWORTH (BURTUNDY)	-33.7492	142.2205
ASN00048001	NEW ANGLEDOOL TELEPHONE OFFICE	-29.1	147.9
ASN00048003	BANGATE	-29.2667	147.7667
ASN00048004	BARRINGUN	-29.0128	145.7132
ASN00048006	ENNGONIA (BELALIE)	-29.1581	145.8068
ASN00048009	CARINDA (BOOROOMA)	-30.1047	147.4647
ASN00048011	GIRILAMBONE (BOOROOMUGGA)	-31.3078	146.4392
ASN00048013	BOURKE POST OFFICE	-30.0917	145.9358
ASN00048014	GOODOOGA (BRENDA)	-29.0299	147.3128
ASN00048015	BREWARRINA HOSPITAL	-29.9614	146.8651
ASN00048016	YANTABULLA (BRINDINGABBA)	-29.0833	144.9
ASN00048017	BULGOO	-31.8	145.6
ASN00048019	BUNGHILL TANK	-29.7667	147.7833
ASN00048028	CHARLTON	-30.25	146.7
ASN00048029	CLOVER CREEK	-30.45	145.3
ASN00048030	COBAR POST OFFICE	-31.5	145.8
ASN00048031	COLLARENEBRI (ALBERT ST)	-29.5407	148.5818
ASN00048032	COLLERINA (CORRELLA)	-29.6333	146.4167
ASN00048033	CURRAWEENA	-30.8	145.9
ASN00048035	DUMBLE	-29.2	147.4
ASN00048036	WALGETT (DUNGALEAR)	-29.6644	148.1152
ASN00048037	DUNLOP	-30.6333	145.0167
ASN00048039	ENNGONIA (SHEARER STREET)	-29.3174	145.8466
ASN00048043	GAMALALLY	-29.4	148.4
ASN00048044	GNOMERY	-29.1667	147.2667
ASN00048045	GONGOLGON POST OFFICE	-30.35	146.9
ASN00048047	COLLARENEBRI (GOONDOOBLUIE)	-29.1509	148.6252
ASN00048051	KALLARA	-30.9	144.5
ASN00048053	COBAR (LERIDA)	-31.6992	145.7043
ASN00048054	LIGHTNING RIDGE POST OFFICE	-29.4277	147.9805
ASN00048055	LILA LOWER	-29.7	145.6
ASN00048057	LOUTH (BLOXHAM STREET)	-30.5357	145.116
ASN00048059	COBAR (MERYULA)	-31.605	146.0583
ASN00048060	MILROY	-29.6	146.7
ASN00048062	TALYEALYE	-29.1167	144.3833
ASN00048063	M.R.A.	-30.7	147
ASN00048066	AMPHITHEATRE	-31.5333	145.6
ASN00048068	QUANTAMBONE	-29.9	146.9
ASN00048071	SUSSEX	-31.4	146.3
ASN00048072	BREWARRINA (TALAWANTA)	-29.5213	146.9487
ASN00048073	COBAR (THE MEADOWS)	-31.7108	145.2764
ASN00048074	TILPA (TONGO ROAD)	-30.937	144.416
ASN00048075	COBAR (TINDAREY)	-31.1227	145.8319
ASN00048076	EAST TOORALE (TOORALE STATION)	-30.2833	145.3833
ASN00048078	TOULBY	-29	147
ASN00048079	WANAARING POST OFFICE	-29.7029	144.1482
ASN00048080	WAPWEELAH	-29.2	145.6
ASN00048081	WARRAWEENA	-29.9333	146.2333
ASN00048082	WEILMORINGLE	-29.2517	146.9193
ASN00048086	WINBAR	-30.65	144.95
ASN00048091	CORONGA PEAK	-30.9	146.25
ASN00048092	GLENARIFF	-30.8	146.6
ASN00048100	LEDKNAPPER TANK	-29.5	146.3
ASN00048103	ENNGONIA (MORTON PLAINS)	-29.0833	146.2
ASN00048106	NIDGERY	-30.6667	146.9167
ASN00048107	NOCOLECHE	-30.1	144.1
ASN00048113	PIRILLIE 1	-29.5833	145.6333
ASN00048114	COBAR (SPRINGFIELD 2)	-31.6	145.4
ASN00048115	COBAR (TAMBUA)	-31.424	145.2539
ASN00048117	THE LAKE TANK	-29.7	145.9
ASN00048121	WANAARING STATION	-29.6833	144.2167
ASN00048122	WANGAMANA	-29.8	144.8
ASN00048123	WILLERACARA WEST	-30.6167	144.2333
ASN00048124	WILKIE	-29.8833	147.6667
ASN00048127	YAHGUNYAH	-30.5833	145.9333
ASN00048128	YANDA	-30.3	145.7
ASN00048130	WARRAN DOWNS	-30	147.7333
ASN00048132	BARNATO 1	-31.55	145
ASN00048133	BOURKE (BEEMERY)	-29.95	146.4333
ASN00048138	BULLA BULLA STATION	-31.7	144.6
ASN00048144	COOLABAH STATION	-31.0833	146.65
ASN00048145	CORONGA DOWNS	-31.3	145.5
ASN00048147	CURRANYALPA	-31.1	144.4
ASN00048151	YANTABULLA (DUNGARVAN)	-29.5167	144.3333
ASN00048154	FLORIDA STATION	-31.5	146.4
ASN00048155	FORT BOURKE	-30.0833	145.8667
ASN00048156	GERARA	-29.2	146.7167
ASN00048160	GOONERY BORE	-30.05	145.2833
ASN00048161	KENILWORTH	-30.6	146.2
ASN00048168	ANGLEDOOL (ANGLEDOOL STATION)	-29.1173	147.8993
ASN00048183	MOUNT OXLEY	-30.1667	146.3167
ASN00048187	HELMANS TANK	-30.8833	145.8833
ASN00048188	ELDORADO	-30.4667	145.1
ASN00048192	BARROW VALE	-31.65	145.8333
ASN00048193	RESTDOWN	-31.8333	146.3667
ASN00048208	WEILMORINGLE (MORTON SPRINGS)	-29.0667	146.6833
ASN00048210	COBAR (MULGA DOWNS)	-31.5	145.15
ASN00048211	ENNGONIA (GRASS HUT POST OFFIC	-29.6667	145.8667
ASN00048217	LOUTH (ACTON HILL)	-30.3833	145.3
ASN00049002	BALRANALD (RSL)	-34.6398	143.561
ASN00049003	IVANHOE (BONUNA)	-32.6667	144.25
ASN00049004	EUABALONG (BOOBEROI)	-33.0809	146.5747
ASN00049005	MOSSGIEL (BOONDARA)	-33.2833	144.7167
ASN00049006	BOX CREEK TANK	-34.2	143.5
ASN00049007	EUABOLONG (BROTHERONY)	-33.1	146.6667
ASN00049008	HATFIELD (CLARE)	-33.4021	143.9375
ASN00049009	COAN DOWNS	-32.7167	145.7833
ASN00049010	ROTO (COOMBIE)	-32.8274	145.3583
ASN00049011	CULPOTARO	-33.6	144.35
ASN00049012	EUABALONG (LACHLAN ST)	-33.1094	146.4736
ASN00049013	EUSTON POST OFFICE	-34.5833	142.7333
ASN00049014	EUSTON STATION	-34.6	142.7
ASN00049016	FULHAM PARK	-31.9833	144.4167
ASN00049017	GLEN DEE	-34.3	143.9
ASN00049019	IVANHOE POST OFFICE	-32.8999	144.2995
ASN00049020	JUANBUNG	-34.2	143.9167
ASN00049021	IVANHOE (WOKABITY)	-33.0444	144.2354
ASN00049025	MANFRED	-33.3167	143.7667
ASN00049026	MEILMAN	-34.6	142.9
ASN00049028	MERROWIE NORTH	-33.3833	145.5333
ASN00049029	MOSSGIEL (MOOLBONG)	-33.35	144.9333
ASN00049030	NYMAGEE (PYRAMID)	-32.2087	146.3947
ASN00049032	MOUNT HOPE (CYPRESS GROVE)	-32.8345	145.8772
ASN00049036	NYMAGEE (KENMURE STATION)	-32.0641	146.3192
ASN00049037	COBAR (PADDINGTON)	-32.1367	145.0417
ASN00049038	PAIKA	-34.5	143.6
ASN00049041	ROTO STATION	-33.2	145.5
ASN00049042	ST ANDREWS	-33.6	144.5
ASN00049043	SANDY CREEK TANK	-32.2	146
ASN00049044	SHEARLEYS TANK	-31.9	146
ASN00049049	HATFIELD (BENILKIE)	-33.7272	144.0175
ASN00049052	TRIDA (COGIE)	-33	145.05
ASN00049058	YATHONG	-32.65	145.6
ASN00049060	EREMERAN	-32.5	146.4
ASN00049071	CONOBLE	-32.7	144.7
ASN00049072	JUMPING SAND HILL WELL	-33.5	144.7
ASN00049074	MARFIELD	-32.5	144.2
ASN00049075	MERUNGLE	-33.7	145
ASN00049076	NIMAGEE	-32	146.2
ASN00049079	TARRWONG	-33.9	144.4
ASN00049084	TURLEE	-33.8333	143.1667
ASN00049087	NEKARBOO	-32.5333	144.6667
ASN00049090	NILLERA	-32.0833	145.8
ASN00049091	LACHLAN DOWNS	-33	145.8333
ASN00049098	BEDOOBA	-32.3333	145.9167
ASN00049099	D-BLOCK	-33.9667	143.4667
ASN00049101	GUNNARAMBY TANK	-33.2167	144.0167
ASN00049124	GILGUNNIA (NORTH PEAK)	-32.3167	146.0167
ASN00049127	IVANHOE (ABBOTSFORD NORTH)	-33	144.35
ASN00049128	BOOLIGAL (ARRAWATTA)	-33.7667	144.4667
ASN00050005	BOLAGAMY	-33.8	146.9667
ASN00050007	CONDOBOLIN (BORAMBIL PARK)	-33.1624	147.2846
ASN00050009	BULGANDRAMINE	-32.6	148.1
ASN00050011	TOTTENHAM (BURDENDA)	-32.1266	147.4067
ASN00050012	BURRA BURRA	-32.65	147.4
ASN00050014	CONDOBOLIN RETIREMENT VILLAGE	-33.0818	147.1524
ASN00050016	GOONUMBLA (CORADGERY)	-32.9744	148.0632
ASN00050018	DANDALOO (KELVIN)	-32.2884	147.6671
ASN00050020	WARROO (GEERON)	-33.2882	147.5364
ASN00050022	LAKE COWAL	-33.7	147.4
ASN00050023	MELROSE PLAINS	-32.65	147
ASN00050028	TRUNDLE  (MURRUMBOGIE)	-32.9018	147.5224
ASN00050034	NEVERTIRE (BEVERLEY)	-32.0154	147.428
ASN00050039	DANDALOO (TYRIE HOMESTEAD)	-32.2167	147.5333
ASN00050043	TOTTENHAM (WOODLANDS 1)	-32.2	147.35
ASN00050045	YALGOGRIN NORTH (ROLOMA)	-33.8486	146.8261
ASN00050048	ROSEWIN (BOONA TANK)	-32.75	147
ASN00050049	BURRAWANG SOUTH STATION	-33.2	147.5
ASN00050059	CONDOBOLIN STATION	-32.9	147.1
ASN00050064	LAKE COWAL 2	-33.7	147.4
ASN00050065	LAKE COWAL WEST	-33.7	147.4833
ASN00050068	MOOBONG	-33.6	147.8
ASN00050074	TINDA TANK	-32.6	146.9
ASN00050079	WARROO	-33.4	147.7
ASN00050081	WOLLONGOUGH	-33.6	147
ASN00050084	YOUNGARA 1	-33.7833	146.95
ASN00050089	JUMBLE PLAINS	-32.5333	147.4667
ASN00050090	MUNGERY	-32.55	148
ASN00050092	WARGE ROCK 1	-32.5167	147.7833
ASN00050093	WYOMING 1	-32.0667	147.45
ASN00050094	CROWL CREEK	-32.3333	146.7667
ASN00050101	URAMBIE	-32.8667	146.7
ASN00050123	WYALONG UPPER 3 RUN	-33.9	147.2
ASN00050124	PEAK HILL (GENANAGUY)	-32.75	148.0667
ASN00050126	TRUNDLE LAGOON	-32.9333	147.6833
ASN00050128	BOBADAH (MELROSE)	-32.65	146.9333
ASN00050129	TULLAMORE (WARGE ROCK 2)	-32.6	147.75
ASN00050130	WEST WYALONG (WYALONG UPPER NO	-33.8667	147.05
ASN00050132	BOBADAH (PANJIE PARK)	-32.0333	146.85
ASN00050133	NYMAGEE (BABINDA NORTH)	-31.95	146.4833
ASN00051001	COONAMBLE (NARDOO)	-30.8095	148.2284
ASN00051002	BELARINGAR STATION	-31.7833	147.6
ASN00051003	BOX COWELL	-31.6	147.4
ASN00051004	TRANGIE (OLD BUNDEMAR)	-31.8093	148.1584
ASN00051005	NARROMINE (MUMBLE PEG)	-32.0648	148.2356
ASN00051009	COMBOGOLONG	-30.4	148.15
ASN00051010	COONAMBLE COMPARISON	-30.9753	148.3806
ASN00051013	WARREN (EENAWEENA)	-31.515	147.55
ASN00051015	WALGETT (EUROKA)	-30.2	148.15
ASN00051018	GILGANDRA (CHELMSFORD AVE)	-31.7055	148.6625
ASN00051019	GILGOIN	-30.3	147.2
ASN00051020	GIRILAMBONE (AMPOL)	-31.2506	146.9038
ASN00051022	GULARGAMBONE (YALCOGRIN ST)	-31.3329	148.4711
ASN00051025	WARREN (HADDON RIG)	-31.457	147.8824
ASN00051029	NYNGAN (MERRYANBONE)	-31.4333	147.4333
ASN00051031	NYNGAN (CANONBAR)	-31.6395	147.316
ASN00051032	MOUNT TENANDRA	-31.2	148.7
ASN00051033	NYNGAN (MUDALL)	-31.8576	147.1343
ASN00051034	WARREN (MUMBLEBONE)	-31.4986	147.6865
ASN00051036	MURIEL TANK	-31.6	146.6
ASN00051037	NARROMINE (ALAGALAH ST)	-32.2442	148.2447
ASN00051038	NEVERTIRE (CLYDE ST)	-31.8369	147.7171
ASN00051039	NYNGAN AIRPORT	-31.5495	147.1961
ASN00051040	COONAMBLE (PIER PIER)	-30.65	147.9667
ASN00051041	QUABATHOO	-30.6	147.8
ASN00051044	QUAMBONE (SANDY CAMP)	-30.8707	147.7462
ASN00051050	URAWILKIE	-30.8	148.7
ASN00051053	COONAMBLE (WARRANA)	-31	148.4333
ASN00051054	WARREN (FRAWLEY ST)	-31.6976	147.8348
ASN00051056	COONAMBLE (WINGADEE)	-30.5833	148.3167
ASN00051057	MARRA CREEK (WOMBOIN)	-30.6998	147.2232
ASN00051058	BREWON	-30.2	147.5
ASN00051061	COLANE	-31.25	147.2
ASN00051070	CALGA	-31.1	148.7
ASN00051071	CANNONBAR	-31.6	147.3
ASN00051077	COONIMBIA	-30.9	147.9
ASN00051088	WARRUMBUNGLE (CHEDDINGTON)	-31.263	148.8666
ASN00051092	MOONAGEE	-31.3	147.3
ASN00051094	NEBA COONAMBLE	-30.9	148.6
ASN00051098	TRANGIE (HILLSIDE)	-32	148
ASN00051101	WILGAR DOWNS	-30.3	147.9
ASN00051109	MERIGAL	-31.2667	148.55
ASN00051110	NELGOWRIE	-30.9167	148.1333
ASN00051111	THORNDALE	-31.5333	146.9167
ASN00051112	YOWENDAH	-30.15	147.7667
ASN00051128	SILENT DALE	-31.6167	148.15
ASN00051129	WILLEROON	-30.95	147.0667
ASN00051137	BUDGERY	-31.5333	146.6167
ASN00051139	GILGANDRA 1	-31.7	148.6833
ASN00051140	COONAMBLE 2	-30.95	148.3833
ASN00051147	NARROMINE (BURROWAY NO 2)	-31.9	148.3667
ASN00051148	WARREN (EENAWEENA 2)	-31.5167	147.6
ASN00051149	MIANDETTE	-31.5667	146.9667
ASN00051152	NARROMINE (BACKWATER)	-32.25	148.1
ASN00051154	NEVERTIRE (ALLINGTON)	-31.7667	147.7
ASN00052008	ROWENA (BUNNA BUNNA)	-29.7975	149.1961
ASN00052011	CUBBAROO	-30.2	149.1
ASN00052015	WALGETT (GOANGRA)	-30.2167	148.3333
ASN00052018	MERCADOOL	-29.8	148.35
ASN00052019	MOGIL MOGIL (BENIMORA)	-29.3541	148.6895
ASN00052020	MUNGINDI POST OFFICE	-28.9786	148.9899
ASN00052022	MERRYWINBONE (OREEL)	-29.6667	148.8167
ASN00052023	PILLIGA POST OFFICE	-30.3515	148.8843
ASN00052026	WALGETT COUNCIL DEPOT	-30.0236	148.1218
ASN00052027	WALMA	-30.1	148.3
ASN00052043	BOOREEGAMMA	-28.9167	149.2333
ASN00052049	DERRA	-29.55	149.2667
ASN00052053	YARAWA	-29.0333	149.0333
ASN00053001	BARADINE POST OFFICE	-30.948	149.0663
ASN00053005	BOOLCARROL	-30.0667	149.4333
ASN00053010	EDGEROI	-30	150
ASN00053027	MOREE POST OFFICE	-29.5	149.9
ASN00053041	TULLOONA (COOLANGA)	-28.8697	150.0903
ASN00053044	WEE WAA (GEORGE ST)	-30.2257	149.4452
ASN00053053	GOONAL	-29.45	149.3
ASN00053055	MILLIE	-29.8	149.5833
ASN00053060	GARAH (WELBON)	-29.1333	149.7333
ASN00053061	ARRORAMIE LOWER	-30.75	149.6
ASN00053067	WEE WAA (WOODLANDS)	-30.1667	149.3833
ASN00053088	EULAH	-30.95	148.8833
ASN00053092	GOORIANAWAH	-31.1	149
ASN00053093	DINBY	-30.8	148.85
ASN00053106	BOOMI (KUNOPIA)	-28.7167	149.65
ASN00054003	BARRABA POST OFFICE	-30.3781	150.6096
ASN00054004	BINGARA POST OFFICE	-29.8673	150.5715
ASN00054007	BONSHAW (CAMPBELL ST)	-29.0484	151.2766
ASN00054016	DELUNGRA (CRAIGMORE)	-29.4408	150.7858
ASN00054017	GRAVESEND POST OFFICE	-29.5836	150.3362
ASN00054020	MAY VALE	-30.4	150.4
ASN00054021	BARRABA (MOUNT LINDSAY)	-30.3209	150.2734
ASN00054025	OTTLEY (GRAMAN)	-29.3	150.8
ASN00054026	PALLAL	-29.9	150.4
ASN00054029	WARIALDA POST OFFICE	-29.5416	150.5754
ASN00054033	YALLAROI	-29.1	150.5
ASN00054035	YETMAN (WARIALDA STREET)	-28.8973	150.7722
ASN00054036	WALLANGRA (WALLANGRA STATION)	-29.2443	150.8923
ASN00054039	BINGARA (KEERA)	-29.9941	150.7817
ASN00054085	BANNOCKBURN	-29.5833	151.0333
ASN00054088	GRAGIN	-29.5667	150.7667
ASN00054089	GUNNEE	-29.6	150.8
ASN00054092	MYALL CREEK	-29.7167	150.5833
ASN00054095	TARRIARO	-30.3	149.9
ASN00054120	NARRABRI BOWLING CLUB	-30.3222	149.782
ASN00055002	MULLALEY (BANDO)	-31.2342	149.8345
ASN00055003	SOMERTON (BECTIVE ESTATE)	-30.9706	150.7355
ASN00055004	BENDEMEER (CAROLINE ST)	-30.8855	151.1533
ASN00055006	BLACKVILLE POST OFFICE	-31.6405	150.2356
ASN00055007	BOGGABRI POST OFFICE	-30.7056	150.0458
ASN00055008	BREEZA (MAIN STREET)	-31.2475	150.4632
ASN00055013	CUERINDI	-30.7	150.8
ASN00055017	PREMER (EDEN MOOR)	-31.5711	149.7762
ASN00055018	MULLALEY (GARRAWILLA)	-31.1711	149.6456
ASN00055020	BOGGABRI (GHOOLENDAADI)	-30.8333	149.9167
ASN00055021	MULLALEY (GOOLHI)	-31.0167	149.7333
ASN00055023	GUNNEDAH POOL	-30.9841	150.254
ASN00055028	KICKERBELL	-31.55	150.35
ASN00055031	MANILLA POST OFFICE	-30.7477	150.7196
ASN00055034	BOGGABRI (MILCHENGOWRIE)	-30.7454	150.0557
ASN00055037	PINE RIDGE (MOOKI SPRINGS)	-31.5077	150.3986
ASN00055049	QUIRINDI POST OFFICE	-31.5086	150.6792
ASN00055054	TAMWORTH AIRPORT	-31.0867	150.8467
ASN00055057	WILLOW TREE (VALAIS)	-31.7731	150.2856
ASN00055061	BLACKVILLE (WELTON DALE)	-31.75	150.25
ASN00055062	WERRIS CREEK POST OFFICE	-31.349	150.648
ASN00055067	GOONOO GOONOO STATION	-31.3038	150.9069
ASN00055071	PREMER POST OFFICE	-31.4568	149.9001
ASN00055077	FERNLEIGH (ST.HELENA)	-31.8	150.7
ASN00055171	DUNGOWAN STATION	-31.2533	151.185
ASN00055205	BOMERA	-31.4	149.9
ASN00055208	BURBURGATE	-30.8833	150.2
ASN00055210	COOMOO COOMOO	-31.7	150.1
ASN00055212	ELLERSLIE 2	-31.5	149.9
ASN00055219	MILLIWINDI	-30.8	150.6
ASN00055222	TAMWORTH WEST	-31.1	150.9
ASN00055224	WOLLUN	-30.9	151.2
ASN00055228	TULCUMBAH	-30.9	150.45
ASN00055229	MANILLA (UKOLAN)	-30.7333	150.8833
ASN00055230	ABBOTSLEA	-31.0667	150.05
ASN00055232	BIWONDAH	-30.8833	150.1167
ASN00055259	WALLABADAH	-31.6167	150.85
ASN00055278	KIBAH	-30.9833	150.4167
ASN00055281	ULIMAN (BRENTWOOD)	-31.3833	149.6833
ASN00055299	ROBERTSONS MOUNT	-30.6833	150.05
ASN00056002	ARMIDALE (RADIO STATION 2AD)	-30.5167	151.6681
ASN00056006	BUNDARRA POST OFFICE	-30.1711	151.0757
ASN00056008	DEEPWATER POST OFFICE	-29.4421	151.8483
ASN00056009	EMMAVILLE POST OFFICE	-29.4445	151.5987
ASN00056011	GLEN INNES POST OFFICE	-29.7368	151.7366
ASN00056016	GUYRA POST OFFICE	-30.2204	151.6714
ASN00056017	INVERELL COMPARISON	-29.7783	151.1114
ASN00056028	URALLA (SALISBURY COURT)	-30.7338	151.5105
ASN00056029	EMMAVILLE (STRATHBOGIE)	-29.4558	151.4791
ASN00056031	TENTERDEN	-30.1	151.5
ASN00056032	TENTERFIELD (FEDERATION PARK)	-29.0479	152.0172
ASN00056035	WALCHA POST OFFICE	-30.9853	151.5942
ASN00056056	EVERSLEIGH	-30.5	151.5
ASN00056063	URALLA	-30.6	151.5
ASN00056120	ELSMORE (NEWSTEAD NORTH)	-29.8167	151.35
ASN00056143	BEN LOMOND	-30	151.6
ASN00056144	BOOROLONG	-30.3	151.5
ASN00056147	STONEHENGE	-29.9	151.6
ASN00056155	TENTERFIELD 2	-29.0667	152.0833
ASN00056193	GLEN INNES (GLENDON 1)	-29.6833	151.6667
ASN00056195	NEWSTEAD	-29.8333	151.3667
ASN00056207	MARYLAND	-28.5417	151.9909
ASN00057000	ABERFOYLE	-30.2667	152.0167
ASN00057010	EBOR (KOTUPNA)	-30.4333	152.3292
ASN00057018	TABULAM POST OFFICE	-28.8914	152.5663
ASN00057023	EBOR (WONGWIBINDA)	-30.2892	152.1701
ASN00057028	HILLGROVE (HILLVIEW)	-30.5644	151.907
ASN00058012	YAMBA PILOT STATION	-29.4333	153.3633
ASN00058013	CONDONG SUGAR MILL	-28.3167	153.4333
ASN00058017	CUDGEN PLANTATION	-28.3	153.55
ASN00058018	CUMBALUM (FAIRVIEW)	-28.8408	153.5181
ASN00058024	GRAFTON CITY COUNCIL	-29.7	152.9
ASN00058033	LAWRENCE POST OFFICE	-29.4967	153.1041
ASN00058037	LISMORE (CENTRE STREET)	-28.807	153.2628
ASN00058038	MACLEAN (MCLACHLAN STREET)	-29.4521	153.2007
ASN00058048	RAMORNIE	-29.6	152.8
ASN00058056	TWEED HEADS GOLF CLUB	-28.2025	153.5502
ASN00058061	WOODBURN POST OFFICE	-29.0713	153.3449
ASN00058063	CASINO AIRPORT	-28.8755	153.0493
ASN00058085	CLUNES	-28.7	153.4
ASN00058090	ROSEBERRY	-28.5	152.9
ASN00058104	KOREELAH	-28.7167	153.55
ASN00058142	BILAMBIL	-28.2333	153.4667
ASN00058190	UPPER COPMANHURST	-29.5833	152.75
ASN00059000	BELLBROOK (EAST STREET)	-30.8141	152.5129
ASN00059017	KEMPSEY (WIDE STREET)	-31.077	152.8235
ASN00059018	MACKSVILLE COUNTRY CLUB	-30.7241	152.9168
ASN00059039	WOOLGOOLGA (CLEAR PLACE)	-30.1052	153.1956
ASN00059069	FERNMOUNT	-30.5	152.9
ASN00059093	WIRRIALPA (HERNANI)	-30.3	152.4167
ASN00060015	GLOUCESTER POST OFFICE	-32.0063	151.9597
ASN00060022	LAURIETON (ELOUERA ST)	-31.6392	152.7869
ASN00060023	HARRINGTON (OXLEY ANCHORAGE CA	-31.8714	152.6827
ASN00060024	MOORLAND (DENRO-AN)	-31.7816	152.6684
ASN00060026	PORT MACQUARIE (BELLEVUE GARDE	-31.4399	152.911
ASN00060030	TAREE (RADIO STATION 2RE)	-31.8986	152.4834
ASN00060036	WINGHAM (LANARK CLOSE)	-31.862	152.3444
ASN00060082	NOWENDOC (BEAUFORT)	-31.5304	151.7327
ASN00061002	BLACKVILLE (KRUI VALE)	-31.8469	150.341
ASN00061005	BRANXTON POST OFFICE	-32.65	151.35
ASN00061006	BRINDLEY PARK 2	-32.1	150.3
ASN00061014	BRANXTON  (DALWOOD VINEYARD)	-32.6385	151.4173
ASN00061016	DENMAN (PALACE STREET)	-32.3885	150.6886
ASN00061021	GOORANGOOLA	-32.3	151.2
ASN00061023	GOSFORD (GERTRUDE PLACE)	-33.4336	151.3381
ASN00061026	GUNDY (MILLER ST)	-32.0119	150.9971
ASN00061027	BARSHAM	-31.8	150.9
ASN00061035	MAITLAND WEST	-32.7	151.6
ASN00061040	MERRIWA (GUMMUN PLACE)	-32.1388	150.3577
ASN00061046	MORPETH POST OFFICE	-32.7254	151.6285
ASN00061051	MURRURUNDI POST OFFICE	-31.7651	150.8363
ASN00061053	MUSWELLBROOK (LOWER HILL ST)	-32.2611	150.8847
ASN00061054	NELSON BAY (NELSON HEAD)	-32.7103	152.1612
ASN00061055	NEWCASTLE NOBBYS SIGNAL STATIO	-32.9185	151.7985
ASN00061064	RAYMOND TERRACE POST OFFICE	-32.7617	151.74
ASN00061069	SCONE (PHILIP STREET)	-32.0458	150.8708
ASN00061070	SINGLETON POST OFFICE	-32.5667	151.1667
ASN00061071	STROUD POST OFFICE	-32.4027	151.9664
ASN00061072	TAHLEE (CARRINGTON (CHURCH ST)	-32.6678	152.014
ASN00061079	WINGEN (MURRULLA)	-31.8679	150.8809
ASN00061080	BELLTREES 1	-31.9833	151.15
ASN00061083	WYONG (WYONG GOLF CLUB)	-33.272	151.4321
ASN00061086	JERRYS PLAINS POST OFFICE	-32.4972	150.9093
ASN00061088	WAVERLEY (BELLTREES 2)	-31.8667	151.0667
ASN00061098	BELLTREES HOMESTEAD	-32	151.1333
ASN00061100	BROKE (HARROWBY)	-32.7667	151.0872
ASN00061104	ELLERSTON	-31.8	151.3
ASN00061111	DENMAN (MARTINDALE)	-32.4833	150.6833
ASN00061116	TOMAGO	-32.8333	151.7333
ASN00061124	DARTMOUTH	-32.3	150.9
ASN00061125	OAKHAMPTON PARK	-32.7	151.5667
ASN00061127	WOLLOMBI 3	-32.95	151.1667
ASN00061128	BRINDLEY PARK	-32.1	150.35
ASN00061227	DUNGOG (COOREII)	-32.4	151.75
ASN00061228	LECONFIELD	-32.6667	151.3333
ASN00061251	PENSHURST (GRESFORD)	-32.4	151.4
ASN00061280	DUNWELL	-31.9667	150.7167
ASN00061284	LAMBTON	-32.9167	150.7
ASN00061285	TURANVILLE	-32.1333	150.8667
ASN00062004	BURRUNDULLA	-32.6	149.6
ASN00062005	CASSILIS POST OFFICE	-32.0051	149.9815
ASN00062009	CASSILIS (DALKEITH)	-31.9963	149.9856
ASN00062013	GULGONG POST OFFICE	-32.3634	149.5329
ASN00062018	KATELLA	-32.7	149.2
ASN00062021	MUDGEE (GEORGE STREET)	-32.5956	149.5956
ASN00062025	ROTHERWOOD	-31.9	150
ASN00062026	RYLSTONE (ILFORD RD)	-32.8079	149.977
ASN00062034	STUART TOWN	-32.8	149.0833
ASN00062071	LUE STATION	-32.65	149.85
ASN00062082	LLANGOLLEN	-31.9667	150.0167
ASN00062091	CASSILIS (TUREE VALE)	-31.9333	149.8
ASN00063004	BATHURST GAOL	-33.4167	149.55
ASN00063010	BLAYNEY POST OFFICE	-33.535	149.26
ASN00063019	CARCOAR	-33.6167	149.1333
ASN00063021	COWRA POST OFFICE	-33.9	148.7
ASN00063035	HILL END POST OFFICE	-33.0362	149.4146
ASN00063039	KATOOMBA (MURRI ST)	-33.7122	150.3087
ASN00063043	KURRAJONG HEIGHTS (BELLS LINE	-33.5343	150.6338
ASN00063052	METHVEN	-33.5	150.1
ASN00063055	MOUNT MCDONALD	-33.9167	148.95
ASN00063056	MOUNT VICTORIA (MT VICTORIA (S	-33.5917	150.2544
ASN00063057	MOUNT WILSON (NOOROO)	-33.5	150.3667
ASN00063063	OBERON (SPRINGBANK)	-33.6774	149.8374
ASN00063064	O'CONNELL (STRATFORD)	-33.5334	149.7276
ASN00063065	ORANGE POST OFFICE	-33.2833	149.1
ASN00063066	ORANGE (MCLAUGHLIN ST)	-33.2741	149.111
ASN00063077	SPRINGWOOD BOWLING CLUB	-33.7065	150.5848
ASN00063089	WATTLE FLAT GENERAL STORE	-33.141	149.6932
ASN00063090	WELLWOOD	-33.3167	149.15
ASN00063188	BLACK SPRINGS	-33.85	149.75
ASN00063189	CADIA	-33.4	149
ASN00063217	BREWONGLE	-33.5833	149.7
ASN00063218	ERROWANBANG	-33.55	149.05
ASN00063224	LITHGOW (BIRDWOOD ST)	-33.4901	150.1498
ASN00063226	LITHGOW (COOERWULL)	-33.4769	150.1303
ASN00063252	MULGOA	-33.5	150.4
ASN00063258	ATHOL 1	-33.5	149.3
ASN00063265	OBERON (FAIRVIEW 2)	-33.7167	149.7833
ASN00063272	SPRINGWOOD (EUCHORA)	-33.7167	150.5667
ASN00063279	BLAYNEY (ATHOL)	-33.5333	149.2667
ASN00064001	BIAMBLE	-31.75	149.2
ASN00064007	NEILREX (CAIGAN)	-31.7231	149.2558
ASN00064008	COONABARABRAN (NAMOI STREET)	-31.2712	149.2714
ASN00064013	BINNAWAY (HAWTHORNE)	-31.6417	149.427
ASN00064015	MENDOORAN POST OFFICE	-31.8227	149.1217
ASN00064021	TONDERBURINE	-31.35	148.7333
ASN00064023	ULAMAMBRI POST OFFICE	-31.35	149.4
ASN00064025	COOLAH (BINNIA ST)	-31.8231	149.72
ASN00064026	COBBORA (ELLISMAYNE)	-32.0878	149.2349
ASN00064028	WEETALIBA (WEETALABAH)	-31.6335	149.575
ASN00064036	OAKEY CREEK	-31.6167	149.7
ASN00064037	BINNIA DOWNS	-31.6667	149.75
ASN00065000	ARTHURVILLE (CRAMOND)	-32.4975	148.7488
ASN00065006	CANOWINDRA (CANOWINDRA STREET)	-33.572	148.6619
ASN00065007	CARGO POST OFFICE	-33.4167	148.8167
ASN00065010	CUDAL POST OFFICE	-33.2869	148.7396
ASN00065011	CUMNOCK (WILLOW PARK)	-32.9352	148.7545
ASN00065012	DUBBO (DARLING STREET)	-32.2385	148.6089
ASN00065013	EUGOWRA POST OFFICE	-33.4278	148.3721
ASN00065016	FORBES (CAMP STREET)	-33.3892	148.0081
ASN00065019	GOOLOOGONG POST OFFICE	-33.6146	148.435
ASN00065022	MANILDRA (HAZELDALE)	-33.1628	148.5879
ASN00065023	MOLONG (KING ST)	-33.0866	148.8598
ASN00065024	PARKES (NELUNGALOO (NELUNGALOO	-33.1789	147.977
ASN00065025	OBLEY	-32.7	148.5
ASN00065026	PARKES (MACARTHUR STREET)	-33.1419	148.1639
ASN00065029	SUNTOP	-32.6	148.8
ASN00065034	WELLINGTON (AGROWPLOW)	-32.5635	148.9503
ASN00065044	BOGO BOGOLOG	-33.9	148.3
ASN00065048	OOMA	-33.7	148.1
ASN00065052	DUNDULLIMAL	-32.3	148.6
ASN00065066	GARRA	-33.1333	148.5333
ASN00065069	DUBBO WEST	-32.3	148.6
ASN00065074	PINNACLE	-33.75	148.0167
ASN00065076	BROULA	-33.8833	148.5333
ASN00065082	DUBBO (WILBERTREE)	-32.3549	148.5789
ASN00065093	GRENFELL (BALD HILLS)	-33.7667	148.15
ASN00066006	SYDNEY BOTANIC GARDENS	-33.8662	151.216
ASN00066007	BOTANY NO.1 DAM	-33.9333	151.2167
ASN00066015	CROWN ST. RESERVOIR	-33.8833	151.2
ASN00066020	EPPING CHESTER STREET	-33.7687	151.0852
ASN00066046	PARRAMATTA	-33.8167	151
ASN00066052	RANDWICK BOWLING CLUB	-33.9096	151.2419
ASN00066062	SYDNEY (OBSERVATORY HILL)	-33.8607	151.205
ASN00066095	SYDNEY (HORNBY LIGHT)	-33.8333	151.2833
ASN00066101	MARRICKVILLE (FERNBANK)	-33.9167	151.1667
ASN00066111	CRAYDON	-33.85	151.1167
ASN00066112	BONDI	-33.8833	151.2833
ASN00066113	BURWOOD 1	-33.9	151.1
ASN00067004	EMU PLAINS	-33.75	150.6667
ASN00067009	GLENFIELD (MACQUARIE)	-33.9667	150.9
ASN00067011	GRANVILLE	-33.8167	151.0167
ASN00067015	BRINGELLY (MARYLAND)	-33.9696	150.725
ASN00067019	PROSPECT RESERVOIR	-33.8193	150.9127
ASN00067021	RICHMOND - UWS HAWKESBURY	-33.6165	150.7477
ASN00067049	ARNOLD GROVE	-33.4	151.2
ASN00067054	WINDSOR THE PENINSULA	-33.6	150.8167
ASN00067056	PITT TOWN (THE MANSE)	-33.5667	150.8833
ASN00067058	DURAL PUBLIC SCHOOL	-33.7333	151.0833
ASN00067078	KENTHURST	-33.6667	151.0167
ASN00067088	CANLEY VALE	-33.8833	150.9333
ASN00068003	BERRY MASONIC VILLAGE	-34.781	150.6917
ASN00068005	BOWRAL POST OFFICE	-34.5	150.4
ASN00068007	CAMDEN (BROWNLOW HILL)	-34.0254	150.6455
ASN00068011	CAMDEN BOWLING CLUB	-34.05	150.7167
ASN00068013	MENANGLE JMAI	-34.1258	150.7375
ASN00068014	CAMPBELLTOWN 1	-34.0667	150.8
ASN00068017	CATARACT RIVER	-34.2333	150.75
ASN00068028	HELENSBURGH (SAWAN ST)	-34.1908	150.9746
ASN00068032	JAMBEROO (LORNA)	-34.65	150.7833
ASN00068043	MINTO SURREY STREET	-34.0283	150.8433
ASN00068044	MITTAGONG (BEATRICE STREET)	-34.4474	150.4568
ASN00068045	MOSS VALE (HOSKINS STREET)	-34.5444	150.3768
ASN00068052	PICTON COUNCIL DEPOT	-34.1685	150.6145
ASN00068066	WILTON	-34.2	150.6
ASN00068069	WOLLONGONG POST OFFICE	-34.4333	150.8833
ASN00068105	NOWRA COUNCIL OFFICES	-34.8833	150.6
ASN00068134	APPIN (STANHOPE)	-34.2	150.7833
ASN00068135	BALMORAL	-34.3	150.55
ASN00068140	CAPE ST GEORGE	-35.1667	150.7667
ASN00068142	CORDEAUX RIVER	-34.3167	150.7333
ASN00068156	ULSTER PARK	-34.6333	150.5333
ASN00068207	COBBITY (ROSENEATH)	-34.0167	150.6833
ASN00069002	BEGA (NEWTOWN ROAD)	-36.6884	149.838
ASN00069003	BEMBOKA POST OFFICE	-36.6278	149.5705
ASN00069010	BRAIDWOOD (WALLACE STREET)	-35.4489	149.799
ASN00069013	CANDELO POST OFFICE	-36.7677	149.6951
ASN00069014	COBARGO POST OFFICE	-36.3881	149.8882
ASN00069015	EDEN (CARAVAN PARK)	-37.0557	149.9053
ASN00069016	MILTON POST OFFICE	-35.3156	150.4357
ASN00069018	MORUYA HEADS PILOT STATION	-35.9093	150.1532
ASN00069036	BODALLA POST OFFICE	-36.0876	150.0508
ASN00069038	MORUYA BOWLING CLUB	-35.9167	150.0667
ASN00069071	BRAIDWOOD 1	-35.4667	149.8167
ASN00069125	BRAIDWOOD (BEDERVALE)	-35.4667	149.8167
ASN00070004	BOBUNDARA	-36.5	148.9
ASN00070005	BOMBALA (THERRY STREET)	-36.9113	149.2379
ASN00070009	BUKALONG STATION	-36.7969	149.1972
ASN00070012	BUNGONIA (INVERARY PARK)	-34.8996	149.9709
ASN00070019	CAVAN	-35.0167	148.8667
ASN00070023	COOMA LAMBIE STREET	-36.2333	149.1167
ASN00070025	CROOKWELL POST OFFICE	-34.4578	149.4693
ASN00070027	DELEGATE (WEEWALLA)	-37.0488	148.993
ASN00070030	BUNGENDORE (DOUGLAS)	-35.1833	149.4
ASN00070032	FAIRLIGHT STATION	-35.2274	148.9139
ASN00070035	BUNGENDORE (GIDLEIGH)	-35.3081	149.4726
ASN00070037	GOULBURN	-34.75	149.8667
ASN00070042	GUNDAROO (BAIRNSDALE)	-35.0333	149.2667
ASN00070043	GUNNING RURAL SUPPLIES	-34.7823	149.2681
ASN00070050	JIMENBUEN	-36.7	148.9
ASN00070055	GOULBURN (KIPPILAW)	-34.7503	149.5951
ASN00070059	BELCONNEN (WEETANGERRA)	-35.2439	148.9942
ASN00070062	MAJURA 2	-35.3	149.2
ASN00070064	MICHELAGO (SOGLIO)	-35.6797	149.1601
ASN00070072	QUEANBEYAN BOWLING CLUB	-35.3552	149.2292
ASN00070079	TARAGO (KILDARE)	-35.1167	149.6
ASN00070080	TARALGA POST OFFICE	-34.4048	149.8197
ASN00070095	URIARRA HOMESTEAD	-35.3333	148.8833
ASN00070102	CURRANDOOLEY	-35.1667	149.5
ASN00070108	YASS	-34.85	148.9
ASN00070131	WOODHOUSELEE (LEESTON)	-34.545	149.6245
ASN00070172	GUDGENBY	-35.75	148.9833
ASN00070198	WHEEO	-34.4667	149.2833
ASN00070200	SAMARES	-34.8167	149.6667
ASN00070202	QUEANBEYAN 2	-35.3	149.2
ASN00070226	RIVERSVIEW	-36.2	149.0333
ASN00070227	SUTTON POST OFFICE	-35.1667	149.2667
ASN00070301	BOOROWA 3	-34.45	148.7167
ASN00070302	COOMA (ARABLE)	-36.3833	148.9667
ASN00070303	GOULBURN (BAW BAW)	-34.7167	149.6333
ASN00071000	ADAMINABY ALPINE TOURIST PARK	-35.9962	148.7693
ASN00071009	JINDABYNE WEST (HIAWATHA)	-36.4	148.6
ASN00071010	KIANDRA CHALET	-35.8833	148.5
ASN00071037	COOLAMATONG	-36.4	148.7667
ASN00071038	BELOKA (ALPINE MEADOWS)	-36.5333	148.7333
ASN00072000	ADELONG POST OFFICE	-35.3077	148.0646
ASN00072001	ALBURY	-36.1	146.9
ASN00072004	BATLOW POST OFFICE	-35.5203	148.1453
ASN00072006	BIG SPRINGS	-35.3	147.4
ASN00072012	CARABOST	-35.6043	147.7263
ASN00072022	HOLBROOK (RSL)	-35.7225	147.3178
ASN00072031	LAUREL HILL (KUNDIEWA)	-35.6	148.0833
ASN00072033	MARAGLE STATION	-35.9167	148.0833
ASN00072042	TARCUTTA POST OFFICE	-35.2765	147.7362
ASN00072043	TUMBARUMBA POST OFFICE	-35.778	148.0141
ASN00072044	TUMUT (WATTLE CRES)	-35.3194	148.2341
ASN00072049	WOOMARGAMA ESTATE	-35.8575	147.285
ASN00072051	YELLOWIN	-35.5	148.3
ASN00072065	JINGELLIC	-35.9	147.6
ASN00072067	KYAMBA	-35.6	147.7
ASN00072069	TARCUTTA	-35.3	147.7
ASN00072070	YAMBLA	-35.85	147.1
ASN00072072	TOOMA 1	-35.8167	147.8333
ASN00072074	TUMBARUMBA 1	-35.8	148
ASN00072075	TUMUT (RED HILL STATION)	-35.2	148.3
ASN00072093	CUMBEROONA	-36.0167	147.15
ASN00072095	THURGOONA	-36.05	146.9833
ASN00072096	TALMALMO	-35.95	147.5167
ASN00072151	WAGGA WAGGA (KOORINGAL)	-35.1333	147.3667
ASN00072155	BORAMBOLA	-35.2	147.6833
ASN00073000	BARMEDMAN POST OFFICE	-34.1442	147.386
ASN00073003	BERTHONG	-34.5	148.1
ASN00073004	BEHTUNGRA POST OFFICE	-34.7667	147.8667
ASN00073009	COOTAMUNDRA POST OFFICE	-34.6411	148.0236
ASN00073014	GRENFELL (QUONDONG RD)	-33.9029	148.1718
ASN00073016	HARDEN (EAST ST)	-34.5607	148.3653
ASN00073024	MARSDEN (MERUNGLE)	-33.7667	147.5333
ASN00073028	MURRINGO POST OFFICE	-34.3	148.5167
ASN00073029	MURRUMBURRAH OLD POST OFFICE	-34.5495	148.3493
ASN00073030	NARRA ALLEN	-34.3	148.6
ASN00073031	JUNEE REEFS (NOORLA)	-34.65	147.6
ASN00073034	BRUNGLE (ROSEMOUNT)	-35.2	148.3
ASN00073037	TEMORA AMBULANCE STATION	-34.444	147.533
ASN00073041	WOMBAT (TUMBLETON)	-34.4064	148.1795
ASN00073044	WANTABADGERY	-35.0581	147.753
ASN00073045	WANTIOOL (CAITHNESS)	-34.9	147.6667
ASN00073047	WARRANGONG	-34	148.5
ASN00073051	MURRINGO (WINDERMERE)	-34.2054	148.5533
ASN00073055	MUNDARLO (YABTREE)	-35.0996	147.7767
ASN00073056	YOUNG POST OFFICE	-34.3167	148.2967
ASN00073058	MORANGARELL	-34.2	147.1
ASN00073065	BOWNING 1	-34.8	148.8
ASN00073067	BURLINGTON FLAT (NARRABURRA)	-34.3	147.6
ASN00073070	CUCUMGILLIGA	-34.1	148.1
ASN00073079	GOBARRALONG	-35	148.2
ASN00073085	COOTAMUNDRA 1	-34.6333	148.05
ASN00073086	GERALDRA	-34.8	148.2333
ASN00073088	MANDAMAR	-34.1	147.3
ASN00073090	NARRABURRA STATION 1	-34.3833	147.8167
ASN00073098	YOUNG RAILWAY STATION	-34.3	148.3
ASN00073102	NANANGROVE	-34.95	148.6
ASN00073103	BETHUNGRA PARK	-34.8	147.9
ASN00073114	SEBASTOPOL (ERIN VALE)	-34.6608	147.5333
ASN00073119	GILGAL	-34.7333	147.9667
ASN00073121	BRUNDAH	-34	148.3333
ASN00073124	EURONGILLY (BUNDALEER)	-34.9308	147.767
ASN00074005	BARELLAN POST OFFICE	-34.2849	146.5714
ASN00074008	GRONG GRONG  (BEREMBED)	-34.8625	146.8184
ASN00074009	BERRIGAN POST OFFICE	-35.6577	145.8126
ASN00074010	YANCO (BILLINBAH EAST)	-34.6333	146.3
ASN00074012	BOOMANOOMANA	-36	145.8
ASN00074020	WEST WYALONG (TALLIMBALONG)	-33.9387	147.0821
ASN00074021	THE ROCK (BULLENBONG)	-35.1555	146.9356
ASN00074024	BUNGOWANNAH PARK	-36.05	146.8
ASN00074025	BURRUMBUTTOCK (HOLYROOD)	-35.8537	146.777
ASN00074026	URANA (BUTHERWAH)	-35.3526	146.31
ASN00074027	BYGOO	-34.3	146.9
ASN00074029	URANA (COCKETGEDONG)	-35.3	146.05
ASN00074033	COOLAMON POST OFFICE	-34.8159	147.1996
ASN00074035	COWABIE	-34.6	147
ASN00074040	JERILDERIE (POOGINOOK)	-34.8814	145.7595
ASN00074048	GOONAHRA	-34.7	146.5
ASN00074054	HOWLONG POST OFFICE	-35.9787	146.6274
ASN00074055	JERILDERIE TREATMENT WORKS	-35.3475	145.7257
ASN00074056	JINDERA (WADILOCK)	-35.95	146.8961
ASN00074068	MARRAR (CENTENARY DRIVE)	-34.8286	147.3564
ASN00074073	BINYA (MERRIBEE)	-34.3	146.35
ASN00074074	MITTAGONG HEAD STATION	-35.3333	146.95
ASN00074075	MOAMA	-36.1	144.7
ASN00074076	MOIRA PASTORAL CO.	-35.9333	144.9167
ASN00074080	MULWALA HOMESTEAD	-36	146
ASN00074082	NARRANDERA POST OFFICE	-34.75	146.55
ASN00074088	OAKLANDS GENERAL STORE	-35.5579	146.1653
ASN00074089	POMINGALARNA	-35.1	147.2
ASN00074092	PULLETOP (MATTA MIA)	-35.4	147.4
ASN00074095	RENNIE (PINE VIEW)	-35.8215	146.2243
ASN00074098	ROUND HILL	-35.6	147
ASN00074108	DARLINGTON POINT (TUBBO)	-34.6333	146.0948
ASN00074110	URANA POST OFFICE	-35.3305	146.2652
ASN00074111	UROLY	-34.8	146.4
ASN00074115	WALBUNDRIE (CREDITON STREET)	-35.6852	146.7273
ASN00074116	WALLANDOOL	-35.5	146.8
ASN00074121	WUNNAMURRA	-35.4	145.7
ASN00074122	YAMMA	-34.9	146.1
ASN00074124	JERILDERIE (YANKO STATION)	-35.1667	145.7667
ASN00074125	YARRAN	-35.3	146.7
ASN00074126	YERONG CREEK (FERTILIZER DEPOT	-35.385	147.0558
ASN00074128	DENILIQUIN (WILKINSON ST)	-35.5269	144.952
ASN00074129	MATHOURA (MATHOURA STATION)	-35.7228	144.7865
ASN00074138	ARUNDEL	-35.9	146.6
ASN00074139	COLINROOBIE	-34.5	146.6
ASN00074142	BULGANDRA	-35.3	146.3
ASN00074143	BULL PLAIN	-35.8	146.1
ASN00074144	NARRANDERA (BREWARRANA)	-34.8667	146.7833
ASN00074146	COLLENDINA	-36.05	146.3
ASN00074147	COLOMBO CREEK	-35.2	146
ASN00074149	CORNALLA	-35.7	145.2
ASN00074158	KOOBA	-34.1167	146.1333
ASN00074159	LANSDOWNE	-35.1	147.1
ASN00074162	MORUNDAH HOTEL	-34.9349	146.3031
ASN00074169	PINE LODGE 1	-34.65	147.1667
ASN00074171	QUANDARY 1	-34.3667	147.1333
ASN00074175	SANDY CREEK	-35.3	147.3
ASN00074176	SPRINGFIELD 3	-35.5	145.6
ASN00074177	THE OLIVES	-35.9	146.7
ASN00074184	WARBRECCAN	-35.5	144.8
ASN00074185	YALGOGRIN SOUTH	-34.25	146.8833
ASN00074186	YARRABEE PARK	-34.8833	146.3333
ASN00074198	JERILDERIE (COREE STN)	-35.35	145.45
ASN00074222	QUANDARY (HAPPY CORNER)	-34.4	147.3167
ASN00074227	BERRY JERRY (GNADBRO)	-35.0167	147.0333
ASN00075001	BALPOOL (NYANG)	-35.15	144.2
ASN00075005	BENEREMBAH	-34.5	145.8
ASN00075006	BINYA POST OFFICE	-34.2289	146.3444
ASN00075011	BURRABOGIE	-34.5	145.2
ASN00075013	CANOON	-34.5	144.5
ASN00075014	CARRATHOOL MOTORS	-34.4081	145.433
ASN00075018	HAY (CORRONG)	-34.2175	144.4661
ASN00075020	MALLAN (NIEMUR VALLEY)	-35.1619	143.873
ASN00075024	EURUGABAH STATION	-33.8	145
ASN00075026	GROONGAL (GROONGAL STATION)	-34.442	145.5612
ASN00075029	CARRATHOOL (GUM CREEK)	-34.6281	145.3536
ASN00075031	HAY (MILLER STREET)	-34.5194	144.8545
ASN00075032	HILLSTON AIRPORT	-33.4915	145.5249
ASN00075033	HILLVIEW (BALLANDRY)	-34.1	146.1
ASN00075034	HILLSTON (HUNTHAWANG)	-33.3413	145.748
ASN00075035	HAY (ILLILAWA)	-34.4806	144.9789
ASN00075039	LAKE CARGELLIGO AIRPORT	-33.2833	146.3707
ASN00075043	LAKE CARGELLIGO (MERRI-MERRIGA	-33.3935	146.0385
ASN00075045	MOOLPA	-35	143.7
ASN00075046	MOULAMEIN POST OFFICE	-35.0885	144.0349
ASN00075048	SWAN HILL (MURRAY DOWNS)	-35.3412	143.5866
ASN00075049	MAUDE (NAP NAP)	-34.4456	144.1728
ASN00075050	NARADHAN (URALBA)	-33.6104	146.3161
ASN00075051	NOORONG	-35.4	144
ASN00075054	CONARGO (PUCKAWIDGEE)	-35.2849	145.2098
ASN00075057	RANKINS SPRINGS	-33.8467	146.2497
ASN00075059	STEAM PLAINS 1	-35.1	145.3
ASN00075060	STEAM PLAINS 2	-35	145.3
ASN00075063	THELANGERIN EAST	-34.2	144.5
ASN00075064	GROONGAL (GUNDALINE)	-34.4774	145.5472
ASN00075065	HAY (TOOGIMBIE)	-34.55	144.4833
ASN00075067	CARRATHOOL (UARDRY)	-34.466	145.3027
ASN00075069	BOOLIGAL (ULONGA)	-34.0965	144.6529
ASN00075071	WANGANELLA GENERAL STORE	-35.2119	144.816
ASN00075074	HILLSTON (WILLANTHRY)	-33.35	145.8333
ASN00075075	CONARGO (WILLURAH)	-34.9953	145.0915
ASN00075077	YANGA	-34.7	143.6
ASN00075080	WANGANELLA (ZARA)	-35.1721	144.6966
ASN00075083	WERAI	-35.35	144.3
ASN00075096	HILLSTON (COWL COWL)	-33.5871	145.3604
ASN00075114	MOUNT ELLIOT TANK	-34.2	146.2
ASN00075115	MURRIL CREEK	-34.45	146.9
ASN00075117	POON BOON	-35.0833	143.5667
ASN00075118	PUCKAWIDGEE BACK	-35.1	145.2
ASN00075126	WARGAM	-34.9	144.9
ASN00075127	WARWILLAH	-35.1	144.9
ASN00075135	CONAPAIRA	-33.9667	146.2167
ASN00075152	ULONGA STATION (ONE TREE TANK)	-34.1	144.65
ASN00075153	NYAN GAY	-34.9	144.7833
ASN00075156	ULEY	-34.4167	146.8833
ASN00075157	THE CUBAS	-33.8667	144.8833
ASN00076059	TYNTYNDER STATION	-35.2	143.5
ASN00076077	MILDURA POST OFFICE	-34.1833	142.2
ASN00076092	NEDS CORNER HOMESTEAD	-34.2	141.5
ASN00076096	PIANGIL (BURRA BURRA)	-35.05	143.3
ASN00077003	BEULAH	-35.9	142.4
ASN00077022	LAKE CHARM	-35.6	143.8
ASN00077030	NARRAPORT	-35.9963	143.0353
ASN00077034	QUAMBATOOK SOUTH	-35.9296	143.4992
ASN00077042	SWAN HILL POST OFFICE	-35.3406	143.5533
ASN00077047	TYRRELL DOWNS	-35.3633	142.9853
ASN00077059	BUDGERUM	-35.8	143.6
ASN00077062	GREDGWIN (BARRAPORT NORTH)	-36	143.7
ASN00077063	JERUK	-36.0167	143.3833
ASN00077064	LAKE CORRONG	-35.7	142.4
ASN00077067	BERRIWILLOCK (SPRINGFIELD)	-35.6	143.1
ASN00077068	TITTYBONG PINE GROVE FARM	-35.8	143.4
ASN00077069	TOWANINNIE	-35.9	143.4
ASN00077079	NINYEUNOOK	-36.0086	143.3719
ASN00077085	DUMOSA	-35.9333	143.2167
ASN00077086	MACORNA NORTH	-35.8667	143.85
ASN00077089	CURYO SOUTH (MORTON PLAINS)	-35.85	142.8
ASN00078010	DIMBOOLA	-36.4644	142.0327
ASN00078011	DONALD POST OFFICE	-36.4	143
ASN00078014	GLENLEE	-36.2578	141.8587
ASN00078017	JUNG JUNG	-36.6	142.4
ASN00078020	LAEN	-36.45	142.8
ASN00078021	LAKE HINDMARSH SOUTH	-36.1	141.95
ASN00078025	LILLIMUR ESTATE	-36.3664	141.1144
ASN00078027	LITCHFIELD	-36.2833	142.85
ASN00078028	LORQUON	-36.1526	141.7586
ASN00078031	NHILL	-36.3347	141.6367
ASN00078034	SERVICETON	-36.3667	140.9833
ASN00078037	WARRACKNABEAL POST OFFICE	-36.25	142.4
ASN00078040	NHILL (WOORAK)	-36.2882	141.7347
ASN00078041	WOOROONOOK	-36.2483	143.1793
ASN00078042	WYCHEPROOF (POST OFFICE)	-36.0786	143.225
ASN00078043	YANAC NORTH	-36.1114	141.4182
ASN00078048	AREEGRA	-36.3	142.6
ASN00078051	BRIM (BOSWELL PARK)	-36.0833	142.4167
ASN00078054	CARRON NULLAWELL FARM	-36.25	142.75
ASN00078056	DONALD (BANYENONG)	-36.3833	142.9833
ASN00078058	LOCKHART	-36.3667	141.9833
ASN00078061	MOUNT JEFFCOTT	-36.3	143.15
ASN00078067	WARRACKNABEAL 2	-36.25	142.4
ASN00078078	KANIVA	-36.3725	141.2427
ASN00078081	BLACKHEATH	-36.45	141.3
ASN00078084	WATCHEM (MOONA)	-36.1	142.95
ASN00079001	APSLEY	-37	141.1
ASN00079009	CROWLANDS (WOODLANDS)	-37.1	143.1
ASN00079013	ELMHURST	-37.2	143.3
ASN00079014	EVERSLEY	-37.1778	143.1529
ASN00079016	WARRANOOKE (GLENORCHY)	-36.7281	142.7303
ASN00079017	GOROKE (POST OFFICE)	-36.7181	141.4729
ASN00079020	HALLS GAP	-37.2	142.5
ASN00079022	HARROW (PINE HILLS)	-37.0825	141.5631
ASN00079023	HORSHAM POLKEMMET RD	-36.6613	142.0687
ASN00079028	LONGERENONG	-36.6722	142.2991
ASN00079030	MINIMAY (BOOROOPKI)	-36.7	141.2
ASN00079034	MOYSTON	-37.3011	142.7656
ASN00079035	MURTOA	-36.6215	142.4739
ASN00079036	NATIMUK	-36.7416	141.9429
ASN00079038	POMONAL WINDY RIDGE	-37.2	142.6
ASN00079040	ST ARNAUD	-36.6189	143.2631
ASN00079042	STAWELL	-37.1	142.8
ASN00079043	STUART MILL STATE SCHOOL	-36.8	143.3
ASN00079047	WARTOOK POST OFFICE	-37	142.35
ASN00079056	EMU RAIL (DALYENONG)	-36.7	143.4
ASN00079059	GOWAR EAST (RAHINA FARM)	-36.6	143.4
ASN00079061	GYMBOWEN	-36.7	141.6
ASN00079065	MINIMAY (NEUARPUR STATION)	-36.75	141.0667
ASN00079066	RUPANYUP (LALLAT PLAINS)	-36.55	142.5
ASN00079068	TRAINORS LAGOON	-36.6	143
ASN00079069	WALLALOO	-36.7	142.9
ASN00079072	ARCHDALE	-36.8	143.5
ASN00079079	TOTTINGTON	-36.7913	143.1207
ASN00079094	NEUARPURR (BRIPPICK)	-36.7667	141.0667
ASN00079096	LUBECK (ROSLYN)	-36.75	142.65
ASN00080000	BARMAH EAST	-36.0167	145
ASN00080001	BENJEROOP (DAVEY)	-35.51	143.825
ASN00080002	BOORT	-36.116	143.7229
ASN00080003	CALIVIL	-36.2667	144.0833
ASN00080004	CANARY ISLAND	-35.9741	143.8525
ASN00080005	CANARY ISLAND SOUTH	-36.0261	143.8617
ASN00080006	CHARLTON POST OFFICE	-36.3	143.4
ASN00080007	COBRAM POST OFFICE	-35.9164	145.65
ASN00080008	COHUNA (GOULBURN MURRAY)	-35.8	144.2083
ASN00080009	ST ARNAUD (COONOOER BRIDGE)	-36.4775	143.3526
ASN00080012	DINGEE	-36.3667	144.2333
ASN00080015	ECHUCA  AERODROME	-36.1647	144.7642
ASN00080017	GLADFIELD HOPEFIELD ESTATE	-36.0407	143.9403
ASN00080023	KERANG	-35.7236	143.9197
ASN00080024	KERANG (MERAN DOWNS)	-35.8674	143.8007
ASN00080026	KORONG VALE (POST OFFICE)	-36.3567	143.7053
ASN00080028	KYABRAM POST OFFICE	-36.3167	145.05
ASN00080029	LAKE MARMAL	-36.1509	143.5182
ASN00080030	LEITCHVILLE POST OFFICE	-35.9	144.3
ASN00080034	MADOWLA PARK	-36.1	145
ASN00080039	YARRAWALLA SOUTH	-36.1861	144.0565
ASN00080042	NATHALIA (POST OFFICE)	-36.0591	145.2032
ASN00080043	NUMURKAH POST OFFICE	-36.1	145.45
ASN00080048	PYRAMID HILL	-36.05	144.1
ASN00080051	SERPENTINE (EAST LODDON)	-36.3666	143.9522
ASN00080053	TANDARRA	-36.4296	144.2498
ASN00080054	TENNYSON	-36.2991	144.4317
ASN00080058	TORRUMBARRY	-36.1	144.5
ASN00080061	WEDDERBURN (POST OFFICE)	-36.4183	143.6123
ASN00080063	WYCHITELLA SOUTH	-36.25	143.6
ASN00080066	YIELIMA POST OFFICE	-35.9	145.2
ASN00080069	BUCKRABANYULE (NARDOO VALE)	-36.3	143.5
ASN00080072	KAARIMBA	-36.1	145.3
ASN00080073	KERANG (TRAGOWELL)	-35.8	143.9333
ASN00080075	KOONDROOK	-35.65	144.15
ASN00080076	MITIAMO 1	-36.2167	144.2333
ASN00080078	NATHALIA HERALD OFFICE	-36.0833	145.2
ASN00080081	ROCHESTER WEST	-36.35	144.7167
ASN00080082	ROWLANDS (ROWAN)	-35.8667	144.0833
ASN00080083	ST GERMAINS	-36.25	145.15
ASN00080084	SERPENTINE CREEK STATION	-36.3167	143.9833
ASN00080086	STRATHMERTON	-35.9	145.5
ASN00080094	NARREWILOCK	-36.2	143.4
ASN00080113	MOUNT SCOBIE	-36.35	144.9667
ASN00080114	WUNGHNU	-36.15	145.4833
ASN00080116	MOLOGA WEST	-36.1333	144.05
ASN00080117	YALLOOK	-36.4333	144.1667
ASN00080118	BARRAKEE SOUTH	-36.45	143.45
ASN00080121	MACORNA (ROSEVALE)	-35.8833	144.0333
ASN00080124	BOORT EAST	-36.1167	143.85
ASN00081000	AVOCA (POST OFFICE)	-37.0887	143.4747
ASN00081003	BENDIGO PRISON	-36.7533	144.2825
ASN00081004	LAKE ROWAN (BUNGEET)	-36.2667	146.05
ASN00081005	BRIDGEWATER (MEMSIE)	-36.65	143.9333
ASN00081010	COROP	-36.45	144.8
ASN00081013	DOOKIE AGRICULTURAL COLLEGE	-36.3717	145.7048
ASN00081016	ELMORE	-36.4963	144.6096
ASN00081017	GOORAMBAT	-36.415	145.9225
ASN00081018	GOORNONG	-36.6	144.5
ASN00081020	INGLEWOOD (POST OFFICE)	-36.5753	143.8695
ASN00081022	KATANDRA NORTH	-36.25	145.6
ASN00081029	BOXWOOD	-36.3	145.8
ASN00081031	MERRIGUM	-36.3667	145.1333
ASN00081034	MOOROOPNA	-36.3989	145.3448
ASN00081035	MURCHISON	-36.6146	145.2143
ASN00081037	NAGAMBIE CBA	-36.7833	145.1667
ASN00081042	RUNNYMEDE	-36.5	144.6
ASN00081043	RUSHWORTH	-36.5915	145.0162
ASN00081044	GOULBURN RIVER @ SHEPPARTON	-36.3783	145.4192
ASN00081047	TARNAGULLA	-36.7729	143.8338
ASN00081048	TATURA POST OFFICE	-36.4431	145.23
ASN00081050	TOOLLEEN (RYAN)	-36.7167	144.7
ASN00081051	TUNGAMAH	-36.1634	145.8838
ASN00081052	WANALTA	-36.6	144.9
ASN00081054	WHROO	-36.6	145.1
ASN00081057	YARRAWONGA POST OFFICE	-36.0281	146.0044
ASN00081063	AVOCA	-37.0833	143.4833
ASN00081078	WOODSTOCK WEST	-36.8	144
ASN00081081	BUNG BONG	-37.1	143.6
ASN00081085	DUNOLLY	-36.8589	143.7297
ASN00081088	BIG HILL RESERVOIR	-36.8333	144.2333
ASN00081089	CAMPBELLS FOREST (YARRABERB)	-36.5692	144.0739
ASN00081104	YOUARANG	-36.1667	145.8
ASN00081106	GIRGARRE (WOODTHORPE)	-36.4333	145.1333
ASN00081107	HARSTON (COORAMINTA)	-36.4833	145.1667
ASN00082000	BARNAWARTHA	-36.1135	146.6841
ASN00082001	BEECHWORTH COMPOSITE	-36.3702	146.7132
ASN00082002	BENALLA (SHADFORTH STREET)	-36.5483	145.9703
ASN00082010	CHILTERN (POST OFFICE)	-36.1491	146.6106
ASN00082014	CUDGEWA NORTH	-36.2	147.9
ASN00082016	EUROA	-36.7545	145.5727
ASN00082022	KERGUNYAH SOUTH	-36.4472	147.0467
ASN00082024	KOETONG	-36.1523	147.4938
ASN00082028	MIDDLE CREEK (LENEVA)	-36.2	146.9
ASN00082035	NARIEL CREEK  (SIMPSON)	-36.3336	147.7968
ASN00082037	RUFFY	-36.9667	145.5
ASN00082040	RUTHERGLEN NETHERBY WINE	-36.05	146.4
ASN00082043	STRATHBOGIE NORTH	-36.7872	145.8225
ASN00082045	TALLANGATTA DCNR	-36.2161	147.1764
ASN00082047	TALLANGATTA (BULLIOH)	-36.1871	147.3551
ASN00082049	VIOLET TOWN	-36.6425	145.7234
ASN00082051	WAHGUNYAH	-36	146.4
ASN00082052	WALWA	-35.9645	147.7374
ASN00082053	WANGARATTA	-36.3667	146.3
ASN00082058	YACKANDANDAH	-36.3111	146.8381
ASN00082071	BARNAWARTHA	-36.15	146.65
ASN00082078	ESKDALE	-36.45	147.3
ASN00082122	WODONGA SENTINEL OFFICE	-36.1167	146.1333
ASN00082123	TINTALDRA (JEPHCOTT)	-36.05	147.9333
ASN00083005	BRIGHT POST OFFICE	-36.7	147
ASN00083012	HARRIETVILLE	-36.8925	147.0644
ASN00083013	HINNOMUNJIE	-37.0167	147.6667
ASN00083017	JAMIESON	-37.3014	146.1406
ASN00083025	OMEO COMPARISON	-37.1011	147.598
ASN00083029	TOLMIE (LANGLEY)	-37	146.2
ASN00083030	TOLMIE STATE SCHOOL	-37	146.2
ASN00083033	WOODS POINT	-37.5696	146.2541
ASN00083047	DARLINGFORD	-37.25	146.0167
ASN00083051	MOUNT ST BERNARD	-37	147.1
ASN00084000	BENDOC PARK	-37.1178	148.9653
ASN00084001	BINDI	-37.1136	147.8119
ASN00084002	BONANG	-37.1712	148.7228
ASN00084003	BRUTHEN (POST OFFICE)	-37.7073	147.8314
ASN00084005	BUCHAN	-37.5035	148.1692
ASN00084011	DARGO	-37.5	147.25
ASN00084016	GABO ISLAND LIGHTHOUSE	-37.5679	149.9158
ASN00084022	LAKES ENTRANCE POST OFFICE	-37.8833	148
ASN00084030	ORBOST (COMPARISON)	-37.6917	148.4589
ASN00084038	WULGULMERANG	-37.1	148.3
ASN00084049	BONANG (GOOMGERAH)	-37.2	148.7
ASN00084052	BUCHAN (BASIN RANCH)	-37.5	148.1833
ASN00084054	ENSAY	-37.35	147.8
ASN00084082	BAIRNSDALE 1	-37.8167	147.6167
ASN00085011	BLACKWARRY	-38.4	146.65
ASN00085012	BOISDALE	-37.9	147
ASN00085018	CARRAJUNG POST OFFICE	-38.3667	146.7
ASN00085020	CLYDEBANK	-38.0373	147.178
ASN00085029	FOSTER (POST OFFICE)	-38.652	146.1997
ASN00085038	HEYFIELD STATE SCHOOL	-38	146.9
ASN00085041	INVERLOCH	-38.6131	145.7039
ASN00085054	MAFFRA SHIRE HALL	-38	147
ASN00085060	MOORMURANG THE RIDGE	-37.9	147.5
ASN00085062	MORWELL (MAIL CENTRE)	-38.2347	146.4306
ASN00085070	PORT ALBERT	-38.6667	146.6833
ASN00085071	ROSEDALE	-38.1522	146.7875
ASN00085077	STRADBROKE POST OFFICE	-38.3	147
ASN00085078	STRATFORD	-38	147.1
ASN00085081	THORPDALE STATE SCHOOL	-38.3	146.2
ASN00085090	VALENCIA CREEK (BULGAR PARK)	-37.8167	146.9833
ASN00085091	WALHALLA	-37.9347	146.4496
ASN00085092	WARRAGUL (CARBETHON)	-38.2	145.9
ASN00085093	WARRAGUL	-38.1731	145.9487
ASN00085094	WELSHPOOL	-38.6623	146.4297
ASN00085096	WILSONS PROMONTORY LIGHTHOUSE	-39.1297	146.4244
ASN00085097	WOODSIDE	-38.5	146.9
ASN00085111	BRIAGOLONG	-37.8	147.1
ASN00085118	GOONA (NURE)	-37.95	147.6
ASN00085122	KARDELLA (FLEETWOOD)	-38.4	145.9
ASN00085127	NEERIM (DREWSDENE)	-37.95	145.9667
ASN00085130	NEWRY	-37.9	146.9
ASN00085131	NOOJEE NORTH	-37.9	146
ASN00085133	SALE	-38.1	147.05
ASN00085134	SALE MERCURY OFFICE	-38.1	147.0667
ASN00085137	TARWIN LOWER (RIVERSIDE)	-38.7205	145.9011
ASN00085138	TOONGABBIE	-38.1	146.6
ASN00085193	YARRAM	-38.5601	146.6703
ASN00085198	FISH CREEK (ARDEEN)	-38.7333	146.1
ASN00085217	CARRAJUNG (BROOKSIDE)	-38.3667	146.7667
ASN00085245	ALBERTON THE MEADOWS	-38.6167	146.7167
ASN00085246	BUDGEREE EDEN PARK	-38.6167	146.2833
ASN00086005	BEENAK	-37.9	145.6
ASN00086017	CAPE SCHANCK LIGHTHOUSE	-38.4931	144.8858
ASN00086018	CAULFIELD (RACECOURSE)	-37.8795	145.0368
ASN00086023	CLYDE STATE SCHOOL	-38.1	145.3
ASN00086025	COWES	-38.4833	145.2667
ASN00086032	DROMANA	-38.4	145
ASN00086040	FLINDERS STATE SCHOOL	-38.5	145
ASN00086045	GEMBROOK	-37.95	145.5667
ASN00086048	HASTINGS POST OFFICE	-38.3167	145.2
ASN00086055	OFFICER (JESMOND DENE)	-38.05	145.4
ASN00086060	KEW	-37.8167	145.0333
ASN00086066	LILYDALE	-37.7488	145.3416
ASN00086071	MELBOURNE REGIONAL OFFICE	-37.8075	144.97
ASN00086079	MORNINGTON	-38.2358	145.0667
ASN00086083	MURRUMBEENA LEEDS GROVE	-37.9	145.1
ASN00086085	NARRE WARREN NORTH (NARRE WARR	-37.9897	145.3356
ASN00086092	POOWONG (POST OFFICE)	-38.3425	145.7653
ASN00086102	SAN REMO	-38.5333	145.3833
ASN00086121	WARBURTON	-37.7517	145.6757
ASN00086131	YAN YEAN	-37.5552	145.1259
ASN00086138	GREENSBOROUGH	-37.7	145.1
ASN00086148	WANDIN (YALLOCK)	-37.8	145.45
ASN00086151	BASS (KILCUNDA)	-38.5	145.45
ASN00086161	BRIGHTON MIDDLE	-37.9167	145
ASN00086170	DANDENONG (COMBEROOND)	-37.85	145.2667
ASN00086172	FERNTREE GULLY	-37.8	145.3
ASN00086177	GRANTVILLE	-38.4	145.5
ASN00086194	OUTTRIM	-38.4964	145.7772
ASN00086219	CORANDERRK BADGER WEIR	-37.6886	145.5644
ASN00086231	RINGWOOD 2	-37.8	145.3
ASN00086326	YERING SCHOOL	-37.6833	145.3667
ASN00086329	BENA (CROMWELL)	-38.4333	145.7167
ASN00087002	BACCHUS MARSH	-37.7	144.4
ASN00087006	BALLAN	-37.6018	144.2295
ASN00087011	BEALES RESERVOIR	-37.5417	144.0251
ASN00087014	BUNGAREE (KIRKS RESERVOIR)	-37.5512	143.9322
ASN00087017	BLACKWOOD	-37.4701	144.3069
ASN00087021	DURDIDWARRAH	-37.8233	144.2078
ASN00087025	GEELONG SEC	-38.1167	144.3667
ASN00087026	GISBORNE	-37.4896	144.6123
ASN00087029	LANCEFIELD	-37.2698	144.723
ASN00087034	LOVELY BANKS (RESERVOIR)	-38.0657	144.3281
ASN00087036	MACEDON FORESTRY	-37.4155	144.5569
ASN00087037	MOUNT MACEDON	-37.4	144.5833
ASN00087039	MELTON	-37.6649	144.5748
ASN00087042	MEREDITH	-37.8539	144.11
ASN00087046	SCOTSBURN (MOUNT BONINYONG)	-37.6719	143.94
ASN00087048	LITTLE RIVER (MOUNT ROTHWELL)	-37.8958	144.4387
ASN00087051	MYRNIONG	-37.65	144.35
ASN00087053	PORTARLINGTON	-38.1227	144.642
ASN00087055	RIDDELLS CREEK	-37.45	144.7833
ASN00087057	ROMSEY	-37.35	144.75
ASN00087059	SHELFORD	-38.0131	143.976
ASN00087061	SUNBURY (SALESIAN COLLEGE )	-37.5706	144.7411
ASN00087073	ELAINE (LARUNDEL)	-37.8	143.95
ASN00087092	TEESDALE	-38	144
ASN00087094	WERRIBEE (WYNDHAM)	-37.8833	144.65
ASN00087129	GREENDALE	-37.55	144.3
ASN00087134	MORRISONS (MOREEP)	-37.8	144.1833
ASN00087139	OCEAN GROVE	-38.25	144.5167
ASN00088001	ALEXANDRA (POST OFFICE)	-37.1916	145.7116
ASN00088004	BARKERS CREEK RESERVOIR	-36.9667	144.2667
ASN00088005	BENDIGO CHANNEL	-37.1	144.35
ASN00088011	CAMPBELLTOWN	-37.2236	143.9616
ASN00088015	CLUNES	-37.3049	143.7776
ASN00088016	SMEATON WEIR	-37.4	143.9
ASN00088020	DAYLESFORD	-37.3432	144.1575
ASN00088023	LAKE EILDON	-37.2313	145.9124
ASN00088024	EXPEDITION PASS RESERVOIR	-37.05	144.3
ASN00088026	FRYERSTOWN	-37.1	144.25
ASN00088027	GLENAROUA	-37.1	145
ASN00088029	HEATHCOTE	-36.9579	144.6935
ASN00088034	KILMORE ASSUMPTION COLLEGE	-37.3011	144.9475
ASN00088035	KINGSTON	-37.35	144
ASN00088036	KYNETON POST OFFICE	-37.25	144.45
ASN00088040	LYONVILLE	-37.4	144.25
ASN00088041	MALDON (DERBY HILL)	-36.9989	144.0703
ASN00088042	MALMSBURY RESERVOIR	-37.1965	144.3742
ASN00088043	MARYBOROUGH	-37.056	143.732
ASN00088052	TULLAROOP RESERVOIR	-37.0906	143.8639
ASN00088053	SEYMOUR SHIRE DEPOT	-37.0277	145.1491
ASN00088059	TRENTHAM (POST OFFICE)	-37.3894	144.3232
ASN00088060	KINGLAKE WEST (WALLABY CREEK)	-37.4475	145.2143
ASN00088061	WOODEND (CARLISLE STREET)	-37.3449	144.5365
ASN00088067	YEA	-37.2177	145.4211
ASN00088083	BUXTON	-37.4	145.7
ASN00088085	CASTLEMAINE	-37.0667	144.2333
ASN00088096	METCALFE	-37.1	144.4
ASN00088100	MOUNT MITCHELL	-37.3	143.6
ASN00088101	NEWLYN RESERVOIR	-37.4	144
ASN00088104	TALBOT	-37.2	143.7
ASN00088142	HOMEWOOD	-37.2	145.3333
ASN00088145	CLUNES (BECKWORTH COURT)	-37.2833	143.6833
ASN00088146	AMHERST	-37.15	143.6833
ASN00089000	ARARAT POST OFFICE	-37.2833	142.95
ASN00089001	BALLARAT BOTANICAL GARDENS	-37.5489	143.8192
ASN00089003	BALMORAL (POST OFFICE)	-37.2472	141.8415
ASN00089004	BARUNAH PLAINS	-38.0683	143.8667
ASN00089005	BEAUFORT	-37.4483	143.3658
ASN00089006	BERRYBANK	-37.9633	143.4672
ASN00089009	CAVENDISH (POST OFFICE)	-37.5267	142.0414
ASN00089013	GLENTHOMPSON (BRIE BRIE)	-37.7	142.5
ASN00089024	ROKEWOOD (KURUC A RUC)	-37.9	143.7
ASN00089030	TRAWALLA	-37.4817	143.4622
ASN00089031	VICTORIA VALLEY	-37.5	142.3
ASN00089033	WICKLIFFE	-37.6901	142.7253
ASN00089038	BUANGOR 1	-37.3667	143.1833
ASN00089046	CHEPSTOWE	-37.6	143.5
ASN00089047	ENFIELD	-37.8	143.8
ASN00089049	BALLARAT SURVEY OFFICE	-37.55	143.8833
ASN00089050	BALLARAT MOUNT PLEASANT OBS.	-37.55	143.8833
ASN00089052	BEAUFORT (STONELEIGH)	-37.6	143.2
ASN00089055	LISMORE (THE MANSE)	-38	143
ASN00089056	DUNKELD	-37.7	142.3
ASN00089060	LANGI CHIRAM	-37.3	143
ASN00089063	MIRRANATWA (BULLAWIN PARK)	-37.4	142.3833
ASN00089064	MOUNT BUTE	-37.7333	143.4833
ASN00089067	ROKEWOOD (THE MEADOWS)	-38	143.7167
ASN00089069	ROKEWOOD (WURROCK)	-37.8833	143.7
ASN00089070	SCARSDALE	-37.7	143.65
ASN00089071	STREATHAM (PRETTY TOWER)	-37.6667	143.0667
ASN00089072	WINCHELSEA (MURDEDUKE)	-38.2	144
ASN00089096	BALLARAT SCHOOL OF MINES	-37.5667	143.85
ASN00089097	SKIPTON (MOORAMONG STATION)	-37.6333	143.2333
ASN00089101	CARRANBALLAC (STREATHAM)	-37.7	143.1833
ASN00090006	BEECH FOREST	-38.6	143.6
ASN00090010	BRANXHOLME (BASSETT)	-37.8595	141.7708
ASN00090015	CAPE OTWAY LIGHTHOUSE	-38.8556	143.5128
ASN00090020	CASTERTON (WARROCK)	-37.435	141.3428
ASN00090023	COLAC BOTANICAL GARDENS	-38.3	143.6
ASN00090025	COLERAINE (TULSE HILL)	-37.5	141.55
ASN00090031	DARLINGTON (WARE STREET)	-37.9966	143.0473
ASN00090032	DARTMOOR	-37.9	141.3
ASN00090043	PORT FAIRY (GRIFFITHS ISLAND)	-38.4	142.2
ASN00090044	HAMILTON	-37.7333	142.0167
ASN00090045	HAWKESDALE (POST OFFICE)	-38.1059	142.3216
ASN00090047	HEYWOOD POST OFFICE	-38.1	141.6333
ASN00090051	KOROIT	-38.2928	142.3725
ASN00090054	LORNE POST OFFICE	-38.55	143.9833
ASN00090056	MERINO (GLENORCHY ESTATE)	-37.7	141.55
ASN00090057	MERINO	-37.72	141.5489
ASN00090058	MORTLAKE	-38.0853	142.79
ASN00090059	NELSON	-38.0329	141.0183
ASN00090061	PENNYROYAL CREEK	-38.421	143.8348
ASN00090063	PENSHURST (POST OFFICE)	-37.875	142.2895
ASN00090067	PORT CAMPBELL POST OFFICE	-38.6196	142.9944
ASN00090070	PORTLAND	-38.3846	141.6074
ASN00090072	PURALKA	-37.8	141.1
ASN00090081	WARRNAMBOOL SHIRE OFFICE	-38.3725	142.4694
ASN00090084	WOOLSTHORPE	-38.1833	142.4682
ASN00090089	TIRRENGOWER	-38.4	143.4
ASN00090091	CHETWYND	-37.3	141.4
ASN00090099	BENWERRIN	-38.45	143.9
ASN00090100	CAMPERDOWN (EDDINGTON)	-38.15	143.0167
ASN00090101	BIRREGURRA (RIPPLE VALE)	-38.3167	143.7833
ASN00090107	CASTERTON (NANGEELA)	-37.4	141.25
ASN00090108	CASTERTON VICARAGE	-37.5833	141.4
ASN00090112	COLERAINE (KONONG WOOTONG)	-37.55	141.7167
ASN00090113	COLERAINE (WONDO DALE)	-37.6	141.7
ASN00090115	CUNDARE SOUTH	-38.1	143.6
ASN00090116	POLIGOLET	-37.9833	143.1333
ASN00090122	MACARTHUR (GLENHUNTLY)	-38.1	142
ASN00090125	PANMURE	-38.3	142.7
ASN00090144	BEEAC (EURACK)	-38.2	143.6167
ASN00090155	COBRICO (SUNNYSIDE)	-38.35	142.9667
ASN00090156	MOUNY VANDYKE (LYONS)	-38.0833	141.4667
ASN00091000	DELORAINE (ATHOL)	-41.5211	146.7158
ASN00091004	BRANXHOLM (STOKE STREET)	-41.1692	147.7383
ASN00091010	BURNIE (NO 1)	-41.05	145.9
ASN00091011	CAPE GRIM (WOOLNORTH)	-40.6842	144.7181
ASN00091048	LATROBE (COAL ROAD)	-41.2514	146.3975
ASN00091049	LAUNCESTON (PUMPING STATION)	-41.5	147.2
ASN00091054	LONGFORD (DENTON CLOSE)	-41.5922	147.12
ASN00091057	LOW HEAD (COMPARISON)	-41.0567	146.7883
ASN00091089	SCOTTSDALE	-41.15	147.5
ASN00091094	STANLEY POST OFFICE	-40.7642	145.2944
ASN00091102	ULVERSTONE (KNIGHTS ROAD)	-41.1597	146.1453
ASN00091137	BLACK RIVER	-40.9	145.3
ASN00092002	AVOCA (RAILWAY HOUSE)	-41.7792	147.7225
ASN00092012	FINGAL (LEGGE STREET)	-41.6428	147.9664
ASN00092016	GOULDS COUNTRY POST OFFICE	-41.25	148.05
ASN00092017	KELLEVIE	-42.7856	147.8086
ASN00092024	MATHINNA (FINGAL ROAD)	-41.4703	147.8919
ASN00092029	ORMLEY	-41.7214	147.8233
ASN00092037	SWAN ISLAND LIGHTHOUSE	-40.7314	148.1253
ASN00092038	SWANSEA POST OFFICE	-42.1236	148.0731
ASN00092057	BREAK O DAY RIVER (KILLYMOON)	-41.5833	148.0667
ASN00092060	BOOBYALLA	-40.8828	147.8817
ASN00093004	CAMPBELL TOWN (QUORN HALL)	-41.9667	147.5167
ASN00093031	ROSS (BEAUFRONT)	-42.05	147.5
ASN00094003	BAGDAD	-42.6	147.2
ASN00094010	CAPE BRUNY LIGHTHOUSE	-43.4892	147.1453
ASN00094023	FRANKLIN	-43.0906	147.0061
ASN00094029	HOBART (ELLERSLIE ROAD)	-42.8897	147.3278
ASN00094030	HOBART BOTANICAL GARDENS	-42.8667	147.3322
ASN00094045	MOUNT NELSON	-42.9167	147.3333
ASN00094052	PORT ARTHUR	-43.15	147.85
ASN00094058	ROKEBY (THE MALL)	-42.8961	147.4386
ASN00094063	SORELL (WHITLEA)	-42.7864	147.5636
ASN00094071	EAGLEHAWK NECK (JETTY ROAD)	-43.0153	147.9117
ASN00094110	RICHMOND (INVERGUHARITY)	-42.7	147.5
ASN00094132	HOBART (MURRAY STREET)	-42.9	147.3333
ASN00095003	BUSHY PARK (BUSHY PARK ESTATES	-42.7097	146.8983
ASN00095008	HAMILTON (URALLA)	-42.5589	146.8336
ASN00095015	NEW NORFOLK	-42.7833	147.0833
ASN00095043	BOTHWELL (RATHO)	-42.3833	147
ASN00096036	DOGS HEAD (LAKE SORELL)	-42.1	147.2
ASN00096046	MIENA DAM	-41.9822	146.7228
ASN00097014	WARATAH (MOUNT ROAD)	-41.4372	145.5258
ASN00097042	STRAHAN	-42.2	145.3
ASN00098015	CAPE WICKHAM	-39.5833	143.95
ASN00099001	DEAL ISLAND	-39.4764	147.3153
ASN00099012	GOOSE ISLAND	-40.25	147.8
AU000005010	KREMSMUENSTER	48.05	14.1331
AU000005901	WIEN	48.2331	16.35
AU000006306	SALZBURG	47.8	13
AU000011801	INNSBRUCK	47.2667	11.4
AU000015410	SONNBLICK	47.05	12.95
BE000006447	UCCLE	50.8	4.35
BOM00026774	GORKI	54.3	30.933
BOM00033019	PINSK	52.117	26.117
BOM00033038	VASILEVICI	52.25	29.8331
CA001012700	ESQUIMALT	48.4333	-123.4167
CA001066336	PORT SIMPSON	54.5667	-130.4333
CA001090660	BARKERVILLE	53.0667	-121.5167
CA001097550	SODA CREEK	52.3333	-122.2833
CA001100120	AGASSIZ CDA	49.25	-121.7667
CA001101530	CHILLIWACK	49.1667	-121.9167
CA001104468	LADNER	49.0833	-123.0667
CA001104550	LANGLEY	49.1833	-122.5333
CA001105550	NEW WESTMINSTER	49.2167	-122.9333
CA001114620	LILLOOET	50.7	-121.9333
CA001125585	NICOLA LAKE	50.15	-120.65
CA001163779	KAMLOOPS	50.6667	-120.3333
CA001167635	SPENCES BRIDGE	50.4167	-121.5
CA003012195	EDMONTON	53.55	-113.5
CA003031093	CALGARY INT'L A	51.1167	-114.0167
CA003032680	FORT MACLEOD	49.7167	-113.4
CA003033879	LETHBRIDGE	49.7	-112.85
CA003034480	MEDICINE HAT A	50.0167	-110.7167
CA003050520	BANFF	51.1833	-115.5667
CA003072145	DUNVEGAN	55.9333	-118.5833
CA003072657	FORT CHIPEWYAN	58.7167	-111.15
CA003072719	FORT VERMILION	58.45	-116.05
CA004013030	GRENFELL	50.4167	-102.9333
CA004013400	HUMBOLDT	52.2	-105.1
CA004013480	INDIAN HEAD CDA	50.55	-103.65
CA004015325	MOOSE JAW CHAB	50.3833	-105.7
CA004016320	QU'APPELLE	50.5167	-103.8833
CA004016560	REGINA INT'L A	50.4333	-104.6667
CA004019070	YORKTON	51.1833	-102.5167
CA004021520	CHAPLIN	50.4667	-106.65
CA004024920	MAPLE CREEK	49.9	-109.4833
CA004028035	SWIFT CURRENT	50.3333	-107.75
CA004040420	BATTLEFORD	52.6833	-108.3333
CA004056230	PRINCE ALBERT	53.1667	-105.75
CA005010240	BIRTLE	50.4333	-101.05
CA005010977	FORT ELLICE	50.4167	-101.2333
CA005011293	HILLVIEW	49.9167	-100.55
CA005011760	MINNEDOSA	50.2667	-99.8333
CA005012046	NORQUAY	49.4833	-98.75
CA005012279	PORTAGE LA PRAIRIE	49.9667	-98.3
CA005012333	RAPID CITY FORREST	50.0167	-100
CA005012520	RUSSELL	50.7667	-101.2833
CA005012540	ST ALBANS	49.7	-99.55
CA005012675	SHOAL LAKE	50.4333	-100.5833
CA005012799	SWAN LAKE	49.4	-98.7833
CA005012930	TREHERNE	49.6333	-98.7
CA005012935	TURTLE MOUNTAIN	49.1833	-100.3333
CA005020553	CARMAN 2	49.5167	-98
CA005020555	CARTWRIGHT	49.1	-99.35
CA0050205N5	CARTWRIGHT 2	49.1667	-99.5167
CA005020880	EMERSON	49.0667	-97.2
CA005020980	FOXTON	50.45	-97.35
CA005021210	GREENWOOD	50.45	-97.2
CA005021220	GRETNA (AUT)	49.0333	-97.5667
CA005021840	MORDEN	49.1833	-98.1
CA005021920	MORRIS	49.35	-97.3667
CA005022040	NINETTE	49.4	-99.6333
CA005022051	OAKBANK	49.9333	-96.85
CA005022068	PEMBINA CROSSING	49.3	-98.4167
CA005022119	PILOT MOUND	49.1167	-98.8
CA005022120	PILOT MOUND	49.2	-98.8833
CA005022547	ST ANDREWS	50.0833	-96.9833
CA005022790	STONY MOUNTAIN	50.0667	-97.2333
CA005023243	WINNIPEG ST JOHNS COLL	49.8833	-97.1167
CA005030556	CHANNEL ISLAND	52.3	-97.3833
CA005040165	BEAVER	50.0167	-98.7
CA0050520EE	OONIKUP	53.5	-101.3333
CA005062047	NORWAY HOUSE	53.9833	-97.8333
CA005063350	YORK FACTORY	57	-92.3
CA006030488	BARCLAY	49.8333	-92.8167
CA006033690	IGNACE	49.4167	-91.65
CA006034070	KENORA	49.8	-94.5333
CA006043458	HERON BAY	48.6667	-86.2833
CA006045665	NIPIGON	49	-88.25
CA006046588	PORT ARTHUR	48.4333	-89.2167
CA006047615	SAVANNE	48.9667	-90.2
CA006055095	MICHIPICOTEN FALLS	47.8833	-84.6333
CA006055209	MISSANABIE	48.3167	-84.0833
CA006057595	SAULT STE M FORESTRY	46.5	-84.3667
CA006059475	WHITE RIVER	48.6	-85.2833
CA006061263	CARTIER	46.7	-81.5667
CA006061359	CHAPLEAU 2	47.8333	-83.4333
CA006068148	SUDBURY	46.4833	-80.9833
CA006075400	MOOSE FACTORY	51.2333	-80.5
CA006085023	MATTAWA	46.25	-78.6833
CA006085682	NORTH BAY	46.3167	-79.4667
CA006088144	STURGEON FALLS	46.3667	-79.9333
CA006092915	GORE BAY	45.9167	-82.4667
CA006094450	LITTLE CURRENT	45.9333	-81.9
CA006100969	BROCKVILLE	44.6	-75.7
CA006101658	CLONTARF	45.3833	-77.15
CA006101872	CORNWALL	45.0167	-74.7333
CA006102417	FITZROY HARBOUR	45.4667	-76.2167
CA006104185	KINGSTON QUEENS U	44.25	-76.5
CA006104733	MACCUE	44.8833	-76.1667
CA006105887	OTTAWA	45.4	-75.7167
CA006105976	OTTAWA CDA	45.3833	-75.7167
CA006106362	PEMBROKE EDDY MATCH	45.8333	-77.15
CA006107003	RENFREW	45.4333	-76.65
CA006108060	STONECLIFFE	46.15	-78.1
CA006110458	BALA	45	-79.5
CA006110549	BARRIE	44.4	-79.6833
CA006110605	BEATRICE	45.1333	-79.3833
CA006110823	BOGNOR	44.6667	-80.8333
CA006111045	BURKS FALLS	45.6	-79.5667
CA006111375	CHARLINCH	45.45	-79.25
CA006111766	COLDWATER	44.7	-79.6667
CA006111793	COLLINGWOOD	44.4833	-80.2167
CA006112171	DURHAM	44.1833	-80.8167
CA006113000	GRAVENHURST	44.9167	-79.3667
CA006113660	HUNTSVILLE	45.3167	-79.25
CA006114437	LIONS HEAD	44.95	-81.2167
CA006115127	MIDLAND WATER POLLUTION CONTRO	44.75	-79.8833
CA006115810	ORILLIA	44.6167	-79.4
CA006116128	OWEN SOUND	44.5667	-80.9167
CA006116254	PARRY SOUND	45.3333	-80
CA006116705	PRESQU'ILE	44.7	-80.9167
CA006118187	SUTTON WEST	44.3167	-79.3
CA006119064	UPLANDS	45.8	-79.4167
CA006119495	WIARTON	44.75	-81.1333
CA006120315	ARKONA	43.0333	-81.9167
CA006120795	BLENHEIM	42.6667	-82.0167
CA006122845	GODERICH	43.75	-81.7
CA006122848	GODERICH LIGHTHOUSE	43.75	-81.7167
CA006124127	KINCARDINE	44.1667	-81.6167
CA006124700	LUCKNOW	43.95	-81.5
CA006125705	NORTH BRUCE	44.3833	-81.4167
CA006126558	POINT CLARK	44.0833	-81.6833
CA006127513	SARNIA	42.9667	-82.3667
CA006127887	SOUTHAMPTON	44.5	-81.3667
CA006128182	SUNSHINE	43.7833	-81.3333
CA006128240	THEDFORD	43.15	-81.8333
CA006128320	TOBERMORY	45.25	-81.6667
CA006129389	WATFORD	42.9667	-81.9667
CA006129670	WYOMING	42.9333	-82.1167
CA006129850	ZURICH	43.4	-81.6
CA006131388	CHATHAM 2	42.4	-82.2
CA006131910	COTTAM	42.1167	-82.75
CA006131970	DEALTOWN	42.2833	-82.1167
CA006132175	DUTTON	42.6667	-81.5333
CA006134729	LYONS	42.85	-80.9833
CA006136335	PELEE ISLAND	41.75	-82.6833
CA006136626	PORT DALHOUSIE	43.1833	-79.2667
CA006136643	PORT DOVER	42.7833	-80.2167
CA006136694	PORT STANLEY	42.6667	-81.2167
CA006137147	RIDGETOWN	42.45	-81.8833
CA006137285	ST CATHARINES	43.2	-79.25
CA006137361	ST THOMAS	42.7833	-81.1667
CA006137735	SIMCOE	42.8667	-80.3333
CA006139445	WELLAND	43	-79.2667
CA006139520	WINDSOR RIVERSIDE	42.3333	-82.9333
CA006140941	BRANTFORD	43.1333	-80.2667
CA006141095	CAMBRIDGE GALT MOE	43.3333	-80.3167
CA006141763	COLDSTREAM	43.0167	-81.5
CA006141843	CONESTOGO	43.55	-80.5167
CA006142252	EGREMONT	44	-80.6667
CA006142284	ELORA	43.6833	-80.4
CA006142398	FERGUS	43.7	-80.3833
CA006142993	GRANTON	43.2	-81.3333
CA006143083	GUELPH OAC	43.5167	-80.2333
CA006143780	INGERSOLL	43.05	-80.8833
CA006144442	LISTOWEL	43.75	-80.9667
CA006144470	LONDON	42.9833	-81.2
CA006144505	LONDON SOUTH	42.9833	-81.2167
CA006144665	LUCAN	43.1833	-81.4167
CA006146240	PARIS	43.1833	-80.45
CA006146728	PRINCETON	43.2167	-80.6333
CA006147314	ST GEORGE	43.2333	-80.2
CA006147340	ST MARYS	43.25	-81.1833
CA006148100	STRATFORD	43.3833	-81
CA006148120	STRATHROY	42.95	-81.65
CA006149454	WESTMINSTER	42.9333	-81.2833
CA006149625	WOODSTOCK	43.1333	-80.7667
CA006150243	ALTON	43.85	-80.0833
CA006150395	AURORA	43.95	-79.4
CA006150689	BELLEVILLE	44.15	-77.4
CA006150913	BRAMPTON	43.7	-79.7667
CA006152007	DESERONTO	44.1833	-77.0667
CA006152691	GEORGETOWN	43.65	-79.95
CA006153192	HAMILTON	43.2667	-79.9
CA006155616	NEWMARKET	44.0667	-79.4333
CA006155788	ORANGEVILLE	43.9167	-80.05
CA006155876	OSHAWA	43.9	-78.8667
CA006156609	PORT CREDIT	43.5667	-79.6167
CA006156670	PORT HOPE	43.95	-78.2833
CA006157625	SCARBOROUGH JUNCTION	43.7167	-79.2167
CA006157683	SHANNONVILLE	44.2	-77.2167
CA006157685	SHARON	44.1	-79.4333
CA006158065	STONEY CREEK	43.2167	-79.75
CA006158350	TORONTO	43.6667	-79.4
CA006160465	BANCROFT	45.05	-77.85
CA006161990	DENBIGH	45.1167	-77.25
CA006162328	ENNISMORE	44.3833	-78.45
CA006163156	HALIBURTON A	45	-78.5833
CA006164297	LAKEFIELD	44.4667	-78.2333
CA006164430	LINDSAY	44.35	-78.75
CA006165195	MINDEN	44.9333	-78.7167
CA006165716	NORWOOD	44.3833	-77.9667
CA006166416	PETERBOROUGH	44.2833	-78.3167
CA007016280	QUEBEC	46.8	-71.2167
